src/Handle_MEO_Access/DATA/meo-22-to-geo.txt

Satellite-MEO-22-To-Satellite-GEO-1, Satellite-GEO-2, Satellite-GEO-3:  Inview Azimuth, Elevation, & Range


MEO-22-To-GEO-1
---------------
                         Time (UTCG)          Azimuth (deg)    Elevation (deg)     Range (km) 
                  ------------------------    -------------    ---------------    ------------
                  13 Nov 2017 04:00:00.000          126.834              7.955    28106.668798
                  13 Nov 2017 04:01:00.000          126.879              7.625    28247.016455
                  13 Nov 2017 04:02:00.000          126.922              7.298    28387.021415
                  13 Nov 2017 04:03:00.000          126.963              6.973    28526.671114
                  13 Nov 2017 04:04:00.000          127.002              6.652    28665.953235
                  13 Nov 2017 04:05:00.000          127.038              6.333    28804.855695
                  13 Nov 2017 04:06:00.000          127.071              6.017    28943.366651
                  13 Nov 2017 04:07:00.000          127.103              5.703    29081.474486
                  13 Nov 2017 04:08:00.000          127.132              5.393    29219.167809
                  13 Nov 2017 04:09:00.000          127.160              5.085    29356.435451
                  13 Nov 2017 04:10:00.000          127.185              4.780    29493.266458
                  13 Nov 2017 04:11:00.000          127.208              4.477    29629.650092
                  13 Nov 2017 04:12:00.000          127.229              4.177    29765.575821
                  13 Nov 2017 04:13:00.000          127.248              3.879    29901.033319
                  13 Nov 2017 04:14:00.000          127.265              3.585    30036.012462
                  13 Nov 2017 04:15:00.000          127.280              3.292    30170.503324
                  13 Nov 2017 04:16:00.000          127.293              3.003    30304.496171
                  13 Nov 2017 04:17:00.000          127.304              2.715    30437.981462
                  13 Nov 2017 04:18:00.000          127.314              2.431    30570.949843
                  13 Nov 2017 04:19:00.000          127.322              2.148    30703.392144
                  13 Nov 2017 04:20:00.000          127.328              1.868    30835.299377
                  13 Nov 2017 04:21:00.000          127.332              1.591    30966.662730
                  13 Nov 2017 04:22:00.000          127.335              1.316    31097.473570
                  13 Nov 2017 04:23:00.000          127.336              1.043    31227.723433
                  13 Nov 2017 04:24:00.000          127.335              0.773    31357.404026
                  13 Nov 2017 04:25:00.000          127.333              0.505    31486.507222
                  13 Nov 2017 04:26:00.000          127.329              0.239    31615.025060
                  13 Nov 2017 04:27:00.000          127.324             -0.024    31742.949739
                  13 Nov 2017 04:28:00.000          127.317             -0.285    31870.273619
                  13 Nov 2017 04:29:00.000          127.308             -0.544    31996.989215
                  13 Nov 2017 04:30:00.000          127.299             -0.801    32123.089199
                  13 Nov 2017 04:31:00.000          127.287             -1.055    32248.566393
                  13 Nov 2017 04:32:00.000          127.275             -1.307    32373.413771
                  13 Nov 2017 04:33:00.000          127.261             -1.557    32497.624455
                  13 Nov 2017 04:34:00.000          127.245             -1.804    32621.191711
                  13 Nov 2017 04:35:00.000          127.228             -2.050    32744.108951
                  13 Nov 2017 04:36:00.000          127.210             -2.293    32866.369730
                  13 Nov 2017 04:37:00.000          127.191             -2.535    32987.967741
                  13 Nov 2017 04:38:00.000          127.170             -2.774    33108.896817
                  13 Nov 2017 04:39:00.000          127.148             -3.011    33229.150928
                  13 Nov 2017 04:40:00.000          127.125             -3.245    33348.724177
                  13 Nov 2017 04:41:00.000          127.101             -3.478    33467.610803
                  13 Nov 2017 04:42:00.000          127.075             -3.709    33585.805175
                  13 Nov 2017 04:43:00.000          127.049             -3.938    33703.301794
                  13 Nov 2017 04:44:00.000          127.021             -4.164    33820.095288
                  13 Nov 2017 04:45:00.000          126.992             -4.389    33936.180413
                  13 Nov 2017 04:46:00.000          126.962             -4.611    34051.552052
                  13 Nov 2017 04:47:00.000          126.931             -4.832    34166.205211
                  13 Nov 2017 04:48:00.000          126.899             -5.050    34280.135020
                  13 Nov 2017 04:49:00.000          126.866             -5.267    34393.336730
                  13 Nov 2017 04:50:00.000          126.831             -5.482    34505.805716
                  13 Nov 2017 04:51:00.000          126.796             -5.694    34617.537468
                  13 Nov 2017 04:52:00.000          126.760             -5.905    34728.527618
                  13 Nov 2017 04:53:00.000          126.723             -6.113    34838.771853
                  13 Nov 2017 04:54:00.000          126.685             -6.320    34948.266037
                  13 Nov 2017 04:55:00.000          126.646             -6.525    35057.006131
                  13 Nov 2017 04:56:00.000          126.606             -6.728    35164.988206
                  13 Nov 2017 04:57:00.000          126.566             -6.929    35272.208450
                  13 Nov 2017 04:58:00.000          126.524             -7.128    35378.663162
                  13 Nov 2017 04:59:00.000          126.482             -7.326    35484.348750
                  13 Nov 2017 05:00:00.000          126.438             -7.521    35589.261736
                  13 Nov 2017 05:01:00.000          126.394             -7.714    35693.398750
                  13 Nov 2017 05:02:00.000          126.349             -7.906    35796.756530
                  13 Nov 2017 05:03:00.000          126.304             -8.096    35899.331923
                  13 Nov 2017 05:04:00.000          126.257             -8.284    36001.121882
                  13 Nov 2017 05:05:00.000          126.210             -8.470    36102.123467
                  13 Nov 2017 05:06:00.000          126.162             -8.655    36202.333843
                  13 Nov 2017 05:07:00.000          126.114             -8.837    36301.750281
                  13 Nov 2017 05:08:00.000          126.065             -9.018    36400.370156
                  13 Nov 2017 05:09:00.000          126.015             -9.197    36498.190946
                  13 Nov 2017 05:10:00.000          125.964             -9.374    36595.210232
                  13 Nov 2017 05:11:00.000          125.913             -9.549    36691.425698
                  13 Nov 2017 05:12:00.000          125.861             -9.723    36786.835128
                  13 Nov 2017 05:13:00.000          125.809             -9.895    36881.436409
                  13 Nov 2017 05:14:00.000          125.756            -10.065    36975.227529
                  13 Nov 2017 05:15:00.000          125.703            -10.233    37068.206573
                  13 Nov 2017 05:16:00.000          125.648            -10.400    37160.371730
                  13 Nov 2017 05:17:00.000          125.594            -10.565    37251.721283
                  13 Nov 2017 05:18:00.000          125.539            -10.728    37342.253618
                  13 Nov 2017 05:19:00.000          125.483            -10.890    37431.967217
                  13 Nov 2017 05:20:00.000          125.427            -11.049    37520.860659
                  13 Nov 2017 05:21:00.000          125.371            -11.207    37608.932623
                  13 Nov 2017 05:22:00.000          125.314            -11.364    37696.181881
                  13 Nov 2017 05:23:00.000          125.256            -11.518    37782.607305
                  13 Nov 2017 05:24:00.000          125.198            -11.671    37868.207861
                  13 Nov 2017 05:25:00.000          125.140            -11.823    37952.982611
                  13 Nov 2017 05:26:00.000          125.082            -11.972    38036.930712
                  13 Nov 2017 05:27:00.000          125.023            -12.120    38120.051416
                  13 Nov 2017 05:28:00.000          124.963            -12.267    38202.344072
                  13 Nov 2017 05:29:00.000          124.904            -12.411    38283.808119
                  13 Nov 2017 05:30:00.000          124.844            -12.554    38364.443132
                  13 Nov 2017 05:31:00.000          124.784            -12.696    38444.248662
                  13 Nov 2017 05:32:00.000          124.723            -12.836    38523.224470
                  13 Nov 2017 05:33:00.000          124.663            -12.974    38601.370372
                  13 Nov 2017 05:34:00.000          124.602            -13.110    38678.686275
                  13 Nov 2017 05:35:00.000          124.540            -13.245    38755.172181
                  13 Nov 2017 05:36:00.000          124.479            -13.379    38830.828182
                  13 Nov 2017 05:37:00.000          124.417            -13.510    38905.654464
                  13 Nov 2017 05:38:00.000          124.356            -13.641    38979.651304
                  13 Nov 2017 05:39:00.000          124.294            -13.769    39052.819071
                  13 Nov 2017 05:40:00.000          124.232            -13.896    39125.158224
                  13 Nov 2017 05:41:00.000          124.169            -14.022    39196.669316
                  13 Nov 2017 05:42:00.000          124.107            -14.145    39267.352989
                  13 Nov 2017 05:43:00.000          124.045            -14.268    39337.209976
                  13 Nov 2017 05:44:00.000          123.982            -14.389    39406.241101
                  13 Nov 2017 05:45:00.000          123.920            -14.508    39474.447279
                  13 Nov 2017 05:46:00.000          123.857            -14.625    39541.829514
                  13 Nov 2017 05:47:00.000          123.795            -14.742    39608.388902
                  13 Nov 2017 05:48:00.000          123.732            -14.856    39674.126627
                  13 Nov 2017 05:49:00.000          123.669            -14.969    39739.043964
                  13 Nov 2017 05:50:00.000          123.607            -15.081    39803.142278
                  13 Nov 2017 05:51:00.000          123.544            -15.191    39866.423022
                  13 Nov 2017 05:52:00.000          123.482            -15.300    39928.887741
                  13 Nov 2017 05:53:00.000          123.420            -15.407    39990.538066
                  13 Nov 2017 05:54:00.000          123.357            -15.512    40051.375721
                  13 Nov 2017 05:55:00.000          123.295            -15.617    40111.402515
                  13 Nov 2017 05:56:00.000          123.233            -15.719    40170.620348
                  13 Nov 2017 05:57:00.000          123.171            -15.821    40229.031210
                  13 Nov 2017 05:58:00.000          123.110            -15.920    40286.637177
                  13 Nov 2017 05:59:00.000          123.048            -16.019    40343.440416
                  13 Nov 2017 06:00:00.000          122.987            -16.116    40399.443180
                  13 Nov 2017 06:01:00.000          122.926            -16.211    40454.647812
                  13 Nov 2017 06:02:00.000          122.865            -16.305    40509.056744
                  13 Nov 2017 06:03:00.000          122.804            -16.398    40562.672493
                  13 Nov 2017 06:04:00.000          122.744            -16.489    40615.497668
                  13 Nov 2017 06:05:00.000          122.684            -16.579    40667.534963
                  13 Nov 2017 06:06:00.000          122.624            -16.667    40718.787161
                  13 Nov 2017 06:07:00.000          122.565            -16.754    40769.257189
                  13 Nov 2017 06:08:00.000          122.506            -16.840    40818.947893
                  13 Nov 2017 06:09:00.000          122.447            -16.924    40867.862374
                  13 Nov 2017 06:10:00.000          122.388            -17.007    40916.003765
                  13 Nov 2017 06:11:00.000          122.331            -17.088    40963.375287
                  13 Nov 2017 06:12:00.000          122.273            -17.168    41009.980248
                  13 Nov 2017 06:13:00.000          122.216            -17.247    41055.822043
                  13 Nov 2017 06:14:00.000          122.159            -17.325    41100.904153
                  13 Nov 2017 06:15:00.000          122.103            -17.401    41145.230147
                  13 Nov 2017 06:16:00.000          122.047            -17.476    41188.803682
                  13 Nov 2017 06:17:00.000          121.992            -17.549    41231.628499
                  13 Nov 2017 06:18:00.000          121.937            -17.621    41273.708427
                  13 Nov 2017 06:19:00.000          121.883            -17.692    41315.047383
                  13 Nov 2017 06:20:00.000          121.829            -17.762    41355.649368
                  13 Nov 2017 06:21:00.000          121.776            -17.830    41395.518470
                  13 Nov 2017 06:22:00.000          121.724            -17.897    41434.658864
                  13 Nov 2017 06:23:00.000          121.672            -17.963    41473.074811
                  13 Nov 2017 06:24:00.000          121.620            -18.028    41510.770657
                  13 Nov 2017 06:25:00.000          121.570            -18.091    41547.750834
                  13 Nov 2017 06:26:00.000          121.520            -18.153    41584.019861
                  13 Nov 2017 06:27:00.000          121.470            -18.214    41619.582340
                  13 Nov 2017 06:28:00.000          121.422            -18.273    41654.442962
                  13 Nov 2017 06:29:00.000          121.374            -18.332    41688.606501
                  13 Nov 2017 06:30:00.000          121.326            -18.389    41722.077815
                  13 Nov 2017 06:31:00.000          121.280            -18.445    41754.861850
                  13 Nov 2017 06:32:00.000          121.234            -18.500    41786.963634
                  13 Nov 2017 06:33:00.000          121.189            -18.554    41818.388281
                  13 Nov 2017 06:34:00.000          121.145            -18.606    41849.140991
                  13 Nov 2017 06:35:00.000          121.101            -18.657    41879.227045
                  13 Nov 2017 06:36:00.000          121.059            -18.708    41908.651811
                  13 Nov 2017 06:37:00.000          121.017            -18.757    41937.420739
                  13 Nov 2017 06:38:00.000          120.976            -18.805    41965.539364
                  13 Nov 2017 06:39:00.000          120.936            -18.852    41993.013304
                  13 Nov 2017 06:40:00.000          120.896            -18.897    42019.848261
                  13 Nov 2017 06:41:00.000          120.858            -18.942    42046.050019
                  13 Nov 2017 06:42:00.000          120.821            -18.986    42071.624445
                  13 Nov 2017 06:43:00.000          120.784            -19.028    42096.577489
                  13 Nov 2017 06:44:00.000          120.749            -19.070    42120.915185
                  13 Nov 2017 06:45:00.000          120.714            -19.110    42144.643647
                  13 Nov 2017 06:46:00.000          120.680            -19.150    42167.769071
                  13 Nov 2017 06:47:00.000          120.648            -19.188    42190.297735
                  13 Nov 2017 06:48:00.000          120.616            -19.225    42212.236000
                  13 Nov 2017 06:49:00.000          120.586            -19.262    42233.590304
                  13 Nov 2017 06:50:00.000          120.556            -19.297    42254.367246
                  13 Nov 2017 06:51:00.000          120.528            -19.332    42274.573277
                  13 Nov 2017 06:52:00.000          120.500            -19.365    42294.215152
                  13 Nov 2017 06:53:00.000          120.474            -19.397    42313.299635
                  13 Nov 2017 06:54:00.000          120.448            -19.429    42331.833565
                  13 Nov 2017 06:55:00.000          120.424            -19.460    42349.823863
                  13 Nov 2017 06:56:00.000          120.401            -19.489    42367.277527
                  13 Nov 2017 06:57:00.000          120.379            -19.518    42384.201634
                  13 Nov 2017 06:58:00.000          120.359            -19.546    42400.603338
                  13 Nov 2017 06:59:00.000          120.339            -19.573    42416.489873
                  13 Nov 2017 07:00:00.000          120.321            -19.599    42431.868546
                  13 Nov 2017 07:01:00.000          120.304            -19.624    42446.746744
                  13 Nov 2017 07:02:00.000          120.288            -19.649    42461.131929
                  13 Nov 2017 07:03:00.000          120.273            -19.673    42475.031638
                  13 Nov 2017 07:04:00.000          120.259            -19.695    42488.453483
                  13 Nov 2017 07:05:00.000          120.247            -19.717    42501.405153
                  13 Nov 2017 07:06:00.000          120.236            -19.739    42513.894407
                  13 Nov 2017 07:07:00.000          120.226            -19.759    42525.929081
                  13 Nov 2017 07:08:00.000          120.218            -19.779    42537.517084
                  13 Nov 2017 07:09:00.000          120.211            -19.798    42548.666394
                  13 Nov 2017 07:10:00.000          120.205            -19.816    42559.385065
                  13 Nov 2017 07:11:00.000          120.201            -19.833    42569.681220
                  13 Nov 2017 07:12:00.000          120.197            -19.850    42579.563052
                  13 Nov 2017 07:13:00.000          120.196            -19.866    42589.038825
                  13 Nov 2017 07:14:00.000          120.195            -19.882    42598.116874
                  13 Nov 2017 07:15:00.000          120.196            -19.897    42606.805599
                  13 Nov 2017 07:16:00.000          120.198            -19.911    42615.113470
                  13 Nov 2017 07:17:00.000          120.202            -19.924    42623.049024
                  13 Nov 2017 07:18:00.000          120.207            -19.937    42630.620864
                  13 Nov 2017 07:19:00.000          120.214            -19.949    42637.837660
                  13 Nov 2017 07:20:00.000          120.222            -19.961    42644.708144
                  13 Nov 2017 07:21:00.000          120.231            -19.972    42651.241115
                  13 Nov 2017 07:22:00.000          120.242            -19.983    42657.445433
                  13 Nov 2017 07:23:00.000          120.255            -19.993    42663.330023
                  13 Nov 2017 07:24:00.000          120.269            -20.002    42668.903867
                  13 Nov 2017 07:25:00.000          120.284            -20.011    42674.176013
                  13 Nov 2017 07:26:00.000          120.301            -20.019    42679.155565
                  13 Nov 2017 07:27:00.000          120.319            -20.027    42683.851687
                  13 Nov 2017 07:28:00.000          120.339            -20.035    42688.273600
                  13 Nov 2017 07:29:00.000          120.360            -20.042    42692.430582
                  13 Nov 2017 07:30:00.000          120.383            -20.049    42696.331968
                  13 Nov 2017 07:31:00.000          120.408            -20.055    42699.987145
                  13 Nov 2017 07:32:00.000          120.433            -20.061    42703.405556
                  13 Nov 2017 07:33:00.000          120.461            -20.066    42706.596695
                  13 Nov 2017 07:34:00.000          120.490            -20.071    42709.570109
                  13 Nov 2017 07:35:00.000          120.521            -20.076    42712.335393
                  13 Nov 2017 07:36:00.000          120.553            -20.080    42714.902193
                  13 Nov 2017 07:37:00.000          120.587            -20.084    42717.280203
                  13 Nov 2017 07:38:00.000          120.622            -20.088    42719.479161
                  13 Nov 2017 07:39:00.000          120.659            -20.091    42721.508852
                  13 Nov 2017 07:40:00.000          120.698            -20.095    42723.379107
                  13 Nov 2017 07:41:00.000          120.738            -20.097    42725.099796
                  13 Nov 2017 07:42:00.000          120.780            -20.100    42726.680834
                  13 Nov 2017 07:43:00.000          120.823            -20.103    42728.132173
                  13 Nov 2017 07:44:00.000          120.868            -20.105    42729.463806
                  13 Nov 2017 07:45:00.000          120.915            -20.107    42730.685762
                  13 Nov 2017 07:46:00.000          120.963            -20.109    42731.808106
                  13 Nov 2017 07:47:00.000          121.013            -20.111    42732.840939
                  13 Nov 2017 07:48:00.000          121.065            -20.112    42733.794391
                  13 Nov 2017 07:49:00.000          121.118            -20.114    42734.678627
                  13 Nov 2017 07:50:00.000          121.173            -20.115    42735.503840
                  13 Nov 2017 07:51:00.000          121.230            -20.116    42736.280252
                  13 Nov 2017 07:52:00.000          121.288            -20.118    42737.018111
                  13 Nov 2017 07:53:00.000          121.348            -20.119    42737.727690
                  13 Nov 2017 07:54:00.000          121.409            -20.120    42738.419284
                  13 Nov 2017 07:55:00.000          121.473            -20.121    42739.103212
                  13 Nov 2017 07:56:00.000          121.538            -20.122    42739.789810
                  13 Nov 2017 07:57:00.000          121.604            -20.124    42740.489435
                  13 Nov 2017 07:58:00.000          121.672            -20.125    42741.212458
                  13 Nov 2017 07:59:00.000          121.742            -20.126    42741.969265
                  13 Nov 2017 08:00:00.000          121.814            -20.127    42742.770254
                  13 Nov 2017 08:01:00.000          121.887            -20.129    42743.625835
                  13 Nov 2017 08:02:00.000          121.962            -20.130    42744.546426
                  13 Nov 2017 08:03:00.000          122.039            -20.132    42745.542451
                  13 Nov 2017 08:04:00.000          122.117            -20.134    42746.624342
                  13 Nov 2017 08:05:00.000          122.197            -20.136    42747.802529
                  13 Nov 2017 08:06:00.000          122.278            -20.138    42749.087448
                  13 Nov 2017 08:07:00.000          122.362            -20.141    42750.489531
                  13 Nov 2017 08:08:00.000          122.447            -20.143    42752.019207
                  13 Nov 2017 08:09:00.000          122.533            -20.146    42753.686900
                  13 Nov 2017 08:10:00.000          122.622            -20.149    42755.503028
                  13 Nov 2017 08:11:00.000          122.712            -20.152    42757.477997
                  13 Nov 2017 08:12:00.000          122.803            -20.156    42759.622203
                  13 Nov 2017 08:13:00.000          122.896            -20.160    42761.946029
                  13 Nov 2017 08:14:00.000          122.991            -20.164    42764.459840
                  13 Nov 2017 08:15:00.000          123.088            -20.169    42767.173983
                  13 Nov 2017 08:16:00.000          123.186            -20.174    42770.098787
                  13 Nov 2017 08:17:00.000          123.286            -20.179    42773.244555
                  13 Nov 2017 08:18:00.000          123.387            -20.185    42776.621567
                  13 Nov 2017 08:19:00.000          123.491            -20.191    42780.240076
                  13 Nov 2017 08:20:00.000          123.595            -20.198    42784.110302
                  13 Nov 2017 08:21:00.000          123.702            -20.205    42788.242438
                  13 Nov 2017 08:22:00.000          123.810            -20.212    42792.646639
                  13 Nov 2017 08:23:00.000          123.919            -20.220    42797.333024
                  13 Nov 2017 08:24:00.000          124.030            -20.229    42802.311675
                  13 Nov 2017 08:25:00.000          124.143            -20.237    42807.592629
                  13 Nov 2017 08:26:00.000          124.257            -20.247    42813.185881
                  13 Nov 2017 08:27:00.000          124.373            -20.257    42819.101381
                  13 Nov 2017 08:28:00.000          124.491            -20.268    42825.349028
                  13 Nov 2017 08:29:00.000          124.610            -20.279    42831.938671
                  13 Nov 2017 08:30:00.000          124.731            -20.291    42838.880104
                  13 Nov 2017 08:31:00.000          124.853            -20.303    42846.183067
                  13 Nov 2017 08:32:00.000          124.977            -20.316    42853.857239
                  13 Nov 2017 08:33:00.000          125.102            -20.330    42861.912240
                  13 Nov 2017 08:34:00.000          125.229            -20.344    42870.357625
                  13 Nov 2017 08:35:00.000          125.357            -20.359    42879.202883
                  13 Nov 2017 08:36:00.000          125.487            -20.375    42888.457436
                  13 Nov 2017 08:37:00.000          125.618            -20.391    42898.130634
                  13 Nov 2017 08:38:00.000          125.751            -20.408    42908.231752
                  13 Nov 2017 08:39:00.000          125.885            -20.426    42918.769992
                  13 Nov 2017 08:40:00.000          126.021            -20.445    42929.754475
                  13 Nov 2017 08:41:00.000          126.158            -20.464    42941.194242
                  13 Nov 2017 08:42:00.000          126.296            -20.484    42953.098251
                  13 Nov 2017 08:43:00.000          126.436            -20.505    42965.475374
                  13 Nov 2017 08:44:00.000          126.577            -20.527    42978.334394
                  13 Nov 2017 08:45:00.000          126.720            -20.550    42991.684003
                  13 Nov 2017 08:46:00.000          126.864            -20.573    43005.532801
                  13 Nov 2017 08:47:00.000          127.010            -20.598    43019.889292
                  13 Nov 2017 08:48:00.000          127.157            -20.623    43034.761882
                  13 Nov 2017 08:49:00.000          127.305            -20.649    43050.158876
                  13 Nov 2017 08:50:00.000          127.454            -20.676    43066.088476
                  13 Nov 2017 08:51:00.000          127.605            -20.704    43082.558779
                  13 Nov 2017 08:52:00.000          127.757            -20.733    43099.577777
                  13 Nov 2017 08:53:00.000          127.911            -20.762    43117.153349
                  13 Nov 2017 08:54:00.000          128.066            -20.793    43135.293263
                  13 Nov 2017 08:55:00.000          128.222            -20.825    43154.005172
                  13 Nov 2017 08:56:00.000          128.379            -20.857    43173.296615
                  13 Nov 2017 08:57:00.000          128.537            -20.891    43193.175010
                  13 Nov 2017 08:58:00.000          128.697            -20.926    43213.647653
                  13 Nov 2017 08:59:00.000          128.858            -20.961    43234.721721
                  13 Nov 2017 09:00:00.000          129.020            -20.998    43256.404261
                  13 Nov 2017 09:01:00.000          129.183            -21.036    43278.702197
                  13 Nov 2017 09:02:00.000          129.347            -21.075    43301.622320
                  13 Nov 2017 09:03:00.000          129.513            -21.115    43325.171292
                  13 Nov 2017 09:04:00.000          129.679            -21.156    43349.355641
                  13 Nov 2017 09:05:00.000          129.847            -21.198    43374.181760
                  13 Nov 2017 09:06:00.000          130.015            -21.241    43399.655904
                  13 Nov 2017 09:07:00.000          130.185            -21.285    43425.784192
                  13 Nov 2017 09:08:00.000          130.356            -21.330    43452.572597
                  13 Nov 2017 09:09:00.000          130.528            -21.377    43480.026955
                  13 Nov 2017 09:10:00.000          130.701            -21.424    43508.152954
                  13 Nov 2017 09:11:00.000          130.874            -21.473    43536.956138
                  13 Nov 2017 09:12:00.000          131.049            -21.523    43566.441903
                  13 Nov 2017 09:13:00.000          131.225            -21.574    43596.615494
                  13 Nov 2017 09:14:00.000          131.402            -21.626    43627.482010
                  13 Nov 2017 09:15:00.000          131.579            -21.679    43659.046393
                  13 Nov 2017 09:16:00.000          131.758            -21.734    43691.313435
                  13 Nov 2017 09:17:00.000          131.937            -21.789    43724.287772
                  13 Nov 2017 09:18:00.000          132.117            -21.846    43757.973882
                  13 Nov 2017 09:19:00.000          132.298            -21.905    43792.376089
                  13 Nov 2017 09:20:00.000          132.480            -21.964    43827.498556
                  13 Nov 2017 09:21:00.000          132.663            -22.024    43863.345288
                  13 Nov 2017 09:22:00.000          132.846            -22.086    43899.920127
                  13 Nov 2017 09:23:00.000          133.031            -22.149    43937.226756
                  13 Nov 2017 09:24:00.000          133.216            -22.213    43975.268693
                  13 Nov 2017 09:25:00.000          133.401            -22.279    44014.049293
                  13 Nov 2017 09:26:00.000          133.588            -22.345    44053.571747
                  13 Nov 2017 09:27:00.000          133.775            -22.413    44093.839080
                  13 Nov 2017 09:28:00.000          133.963            -22.483    44134.854152
                  13 Nov 2017 09:29:00.000          134.151            -22.553    44176.619655
                  13 Nov 2017 09:30:00.000          134.340            -22.625    44219.138116
                  13 Nov 2017 09:31:00.000          134.530            -22.698    44262.411892
                  13 Nov 2017 09:32:00.000          134.720            -22.772    44306.443173
                  13 Nov 2017 09:33:00.000          134.911            -22.848    44351.233980
                  13 Nov 2017 09:34:00.000          135.103            -22.924    44396.786164
                  13 Nov 2017 09:35:00.000          135.295            -23.002    44443.101410
                  13 Nov 2017 09:36:00.000          135.487            -23.082    44490.181231
                  13 Nov 2017 09:37:00.000          135.680            -23.162    44538.026970
                  13 Nov 2017 09:38:00.000          135.874            -23.244    44586.639802
                  13 Nov 2017 09:39:00.000          136.068            -23.327    44636.020732
                  13 Nov 2017 09:40:00.000          136.262            -23.412    44686.170595
                  13 Nov 2017 09:41:00.000          136.457            -23.498    44737.090056
                  13 Nov 2017 09:42:00.000          136.652            -23.585    44788.779612
                  13 Nov 2017 09:43:00.000          136.848            -23.673    44841.239590
                  13 Nov 2017 09:44:00.000          137.044            -23.763    44894.470148
                  13 Nov 2017 09:45:00.000          137.241            -23.854    44948.471276
                  13 Nov 2017 09:46:00.000          137.437            -23.946    45003.242797
                  13 Nov 2017 09:47:00.000          137.634            -24.039    45058.784282
                  13 Nov 2017 09:48:00.000          137.832            -24.134    45115.095382
                  13 Nov 2017 09:49:00.000          138.029            -24.230    45172.175336
                  13 Nov 2017 09:50:00.000          138.227            -24.328    45230.023300
                  13 Nov 2017 09:51:00.000          138.426            -24.426    45288.638263
                  13 Nov 2017 09:52:00.000          138.624            -24.526    45348.019051
                  13 Nov 2017 09:53:00.000          138.823            -24.627    45408.164326
                  13 Nov 2017 09:54:00.000          139.022            -24.730    45469.072588
                  13 Nov 2017 09:55:00.000          139.221            -24.834    45530.742174
                  13 Nov 2017 09:56:00.000          139.420            -24.939    45593.171262
                  13 Nov 2017 09:57:00.000          139.619            -25.045    45656.357869
                  13 Nov 2017 09:58:00.000          139.819            -25.152    45720.299854
                  13 Nov 2017 09:59:00.000          140.019            -25.261    45784.994918
                  13 Nov 2017 10:00:00.000          140.218            -25.371    45850.440608
                  13 Nov 2017 10:01:00.000          140.418            -25.483    45916.634312
                  13 Nov 2017 10:02:00.000          140.618            -25.595    45983.573268
                  13 Nov 2017 10:03:00.000          140.818            -25.709    46051.254559
                  13 Nov 2017 10:04:00.000          141.019            -25.824    46119.675120
                  13 Nov 2017 10:05:00.000          141.219            -25.940    46188.831732
                  13 Nov 2017 10:06:00.000          141.419            -26.058    46258.721032
                  13 Nov 2017 10:07:00.000          141.619            -26.177    46329.339508
                  13 Nov 2017 10:08:00.000          141.819            -26.297    46400.683503
                  13 Nov 2017 10:09:00.000          142.019            -26.418    46472.749218
                  13 Nov 2017 10:10:00.000          142.220            -26.541    46545.532710
                  13 Nov 2017 10:11:00.000          142.420            -26.664    46619.029897
                  13 Nov 2017 10:12:00.000          142.620            -26.789    46693.236558
                  13 Nov 2017 10:13:00.000          142.820            -26.915    46768.148336
                  13 Nov 2017 10:14:00.000          143.020            -27.042    46843.760736
                  13 Nov 2017 10:15:00.000          143.220            -27.171    46920.069133
                  13 Nov 2017 10:16:00.000          143.419            -27.300    46997.068769
                  13 Nov 2017 10:17:00.000          143.619            -27.431    47074.754756
                  13 Nov 2017 10:18:00.000          143.819            -27.563    47153.122078
                  13 Nov 2017 10:19:00.000          144.018            -27.696    47232.165594
                  13 Nov 2017 10:20:00.000          144.217            -27.831    47311.880037
                  13 Nov 2017 10:21:00.000          144.416            -27.966    47392.260021
                  13 Nov 2017 10:22:00.000          144.615            -28.103    47473.300036
                  13 Nov 2017 10:23:00.000          144.814            -28.240    47554.994456
                  13 Nov 2017 10:24:00.000          145.013            -28.379    47637.337539
                  13 Nov 2017 10:25:00.000          145.211            -28.519    47720.323427
                  13 Nov 2017 10:26:00.000          145.409            -28.660    47803.946152
                  13 Nov 2017 10:27:00.000          145.607            -28.802    47888.199633
                  13 Nov 2017 10:28:00.000          145.805            -28.946    47973.077683
                  13 Nov 2017 10:29:00.000          146.003            -29.090    48058.574008
                  13 Nov 2017 10:30:00.000          146.200            -29.235    48144.682210
                  13 Nov 2017 10:31:00.000          146.397            -29.382    48231.395725
                  13 Nov 2017 10:32:00.000          146.594            -29.529    48318.708083
                  13 Nov 2017 10:33:00.000          146.791            -29.678    48406.612522
                  13 Nov 2017 10:34:00.000          146.987            -29.828    48495.102247
                  13 Nov 2017 10:35:00.000          147.183            -29.978    48584.170372
                  13 Nov 2017 10:36:00.000          147.379            -30.130    48673.809919
                  13 Nov 2017 10:37:00.000          147.575            -30.283    48764.013820
                  13 Nov 2017 10:38:00.000          147.770            -30.437    48854.774921
                  13 Nov 2017 10:39:00.000          147.965            -30.591    48946.085980
                  13 Nov 2017 10:40:00.000          148.160            -30.747    49037.939675
                  13 Nov 2017 10:41:00.000          148.354            -30.904    49130.328601
                  13 Nov 2017 10:42:00.000          148.548            -31.062    49223.245276
                  13 Nov 2017 10:43:00.000          148.742            -31.220    49316.682139
                  13 Nov 2017 10:44:00.000          148.936            -31.380    49410.631557
                  13 Nov 2017 10:45:00.000          149.129            -31.541    49505.085822
                  13 Nov 2017 10:46:00.000          149.322            -31.702    49600.037157
                  13 Nov 2017 10:47:00.000          149.515            -31.865    49695.477716
                  13 Nov 2017 10:48:00.000          149.707            -32.028    49791.399587
                  13 Nov 2017 10:49:00.000          149.899            -32.193    49887.794793
                  13 Nov 2017 10:50:00.000          150.091            -32.358    49984.655297
                  13 Nov 2017 10:51:00.000          150.282            -32.524    50081.972998
                  13 Nov 2017 10:52:00.000          150.473            -32.691    50179.739740
                  13 Nov 2017 10:53:00.000          150.664            -32.859    50277.947310
                  13 Nov 2017 10:54:00.000          150.854            -33.028    50376.587441
                  13 Nov 2017 10:55:00.000          151.044            -33.197    50475.651813
                  13 Nov 2017 10:56:00.000          151.234            -33.368    50575.132058
                  13 Nov 2017 10:57:00.000          151.423            -33.539    50675.019756
                  13 Nov 2017 10:58:00.000          151.613            -33.712    50775.306445
                  13 Nov 2017 10:59:00.000          151.801            -33.885    50875.983615
                  13 Nov 2017 11:00:00.000          151.990            -34.058    50977.042718
                  13 Nov 2017 11:01:00.000          152.178            -34.233    51078.475161
                  13 Nov 2017 11:02:00.000          152.366            -34.408    51180.272314
                  13 Nov 2017 11:03:00.000          152.553            -34.585    51282.425512
                  13 Nov 2017 11:04:00.000          152.741            -34.762    51384.926053
                  13 Nov 2017 11:05:00.000          152.927            -34.940    51487.765204
                  13 Nov 2017 11:06:00.000          153.114            -35.118    51590.934197
                  13 Nov 2017 11:07:00.000          153.300            -35.297    51694.424239
                  13 Nov 2017 11:08:00.000          153.486            -35.477    51798.226507
                  13 Nov 2017 11:09:00.000          153.672            -35.658    51902.332152
                  13 Nov 2017 11:10:00.000          153.857            -35.840    52006.732302
                  13 Nov 2017 11:11:00.000          154.042            -36.022    52111.418062
                  13 Nov 2017 11:12:00.000          154.227            -36.205    52216.380515
                  13 Nov 2017 11:13:00.000          154.412            -36.388    52321.610728
                  13 Nov 2017 11:14:00.000          154.596            -36.573    52427.099748
                  13 Nov 2017 11:15:00.000          154.780            -36.758    52532.838606
                  13 Nov 2017 11:16:00.000          154.963            -36.943    52638.818321
                  13 Nov 2017 11:17:00.000          155.147            -37.130    52745.029899
                  13 Nov 2017 11:18:00.000          155.330            -37.317    52851.464333
                  13 Nov 2017 11:19:00.000          155.513            -37.504    52958.112609
                  13 Nov 2017 11:20:00.000          155.695            -37.692    53064.965703
                  13 Nov 2017 11:21:00.000          155.878            -37.881    53172.014587
                  13 Nov 2017 11:22:00.000          156.060            -38.071    53279.250227
                  13 Nov 2017 11:23:00.000          156.242            -38.261    53386.663584
                  13 Nov 2017 11:24:00.000          156.423            -38.452    53494.245620
                  13 Nov 2017 11:25:00.000          156.605            -38.643    53601.987295
                  13 Nov 2017 11:26:00.000          156.786            -38.835    53709.879569
                  13 Nov 2017 11:27:00.000          156.967            -39.027    53817.913407
                  13 Nov 2017 11:28:00.000          157.148            -39.220    53926.079774
                  13 Nov 2017 11:29:00.000          157.329            -39.414    54034.369643
                  13 Nov 2017 11:30:00.000          157.509            -39.608    54142.773993
                  13 Nov 2017 11:31:00.000          157.689            -39.802    54251.283808
                  13 Nov 2017 11:32:00.000          157.870            -39.998    54359.890085
                  13 Nov 2017 11:33:00.000          158.049            -40.193    54468.583827
                  13 Nov 2017 11:34:00.000          158.229            -40.389    54577.356052
                  13 Nov 2017 11:35:00.000          158.409            -40.586    54686.197789
                  13 Nov 2017 11:36:00.000          158.589            -40.783    54795.100079
                  13 Nov 2017 11:37:00.000          158.768            -40.981    54904.053983
                  13 Nov 2017 11:38:00.000          158.948            -41.179    55013.050573
                  13 Nov 2017 11:39:00.000          159.127            -41.378    55122.080940
                  13 Nov 2017 11:40:00.000          159.306            -41.577    55231.136196
                  13 Nov 2017 11:41:00.000          159.485            -41.776    55340.207470
                  13 Nov 2017 11:42:00.000          159.664            -41.976    55449.285911
                  13 Nov 2017 11:43:00.000          159.843            -42.176    55558.362691
                  13 Nov 2017 11:44:00.000          160.022            -42.377    55667.429006
                  13 Nov 2017 11:45:00.000          160.201            -42.578    55776.476074
                  13 Nov 2017 11:46:00.000          160.380            -42.780    55885.495137
                  13 Nov 2017 11:47:00.000          160.559            -42.982    55994.477464
                  13 Nov 2017 11:48:00.000          160.738            -43.184    56103.414352
                  13 Nov 2017 11:49:00.000          160.917            -43.387    56212.297124
                  13 Nov 2017 11:50:00.000          161.096            -43.590    56321.117132
                  13 Nov 2017 11:51:00.000          161.275            -43.794    56429.865757
                  13 Nov 2017 11:52:00.000          161.454            -43.998    56538.534412
                  13 Nov 2017 11:53:00.000          161.634            -44.202    56647.114540
                  13 Nov 2017 11:54:00.000          161.813            -44.407    56755.597616
                  13 Nov 2017 11:55:00.000          161.992            -44.611    56863.975149
                  13 Nov 2017 11:56:00.000          162.172            -44.817    56972.238683
                  13 Nov 2017 11:57:00.000          162.352            -45.022    57080.379793
                  13 Nov 2017 11:58:00.000          162.531            -45.228    57188.390094
                  13 Nov 2017 11:59:00.000          162.711            -45.434    57296.261234
                  13 Nov 2017 12:00:00.000          162.892            -45.641    57403.984899
                  13 Nov 2017 12:01:00.000          163.072            -45.847    57511.552813
                  13 Nov 2017 12:02:00.000          163.253            -46.054    57618.956739
                  13 Nov 2017 12:03:00.000          163.434            -46.261    57726.188479
                  13 Nov 2017 12:04:00.000          163.615            -46.469    57833.239875
                  13 Nov 2017 12:05:00.000          163.796            -46.677    57940.102808
                  13 Nov 2017 12:06:00.000          163.978            -46.885    58046.769204
                  13 Nov 2017 12:07:00.000          164.160            -47.093    58153.231029
                  13 Nov 2017 12:08:00.000          164.342            -47.301    58259.480290
                  13 Nov 2017 12:09:00.000          164.525            -47.510    58365.509040
                  13 Nov 2017 12:10:00.000          164.708            -47.719    58471.309374
                  13 Nov 2017 12:11:00.000          164.892            -47.928    58576.873435
                  13 Nov 2017 12:12:00.000          165.075            -48.137    58682.193407
                  13 Nov 2017 12:13:00.000          165.260            -48.347    58787.261522
                  13 Nov 2017 12:14:00.000          165.444            -48.556    58892.070057
                  13 Nov 2017 12:15:00.000          165.630            -48.766    58996.611338
                  13 Nov 2017 12:16:00.000          165.815            -48.976    59100.877737
                  13 Nov 2017 12:17:00.000          166.002            -49.186    59204.861675
                  13 Nov 2017 12:18:00.000          166.188            -49.396    59308.555619
                  13 Nov 2017 12:19:00.000          166.376            -49.607    59411.952089
                  13 Nov 2017 12:20:00.000          166.563            -49.817    59515.043651
                  13 Nov 2017 12:21:00.000          166.752            -50.028    59617.822922
                  13 Nov 2017 12:22:00.000          166.941            -50.238    59720.282572
                  13 Nov 2017 12:23:00.000          167.131            -50.449    59822.415319
                  13 Nov 2017 12:24:00.000          167.321            -50.660    59924.213933
                  13 Nov 2017 12:25:00.000          167.512            -50.871    60025.671237
                  13 Nov 2017 12:26:00.000          167.704            -51.082    60126.780106
                  13 Nov 2017 12:27:00.000          167.897            -51.293    60227.533467
                  13 Nov 2017 12:28:00.000          168.090            -51.504    60327.924302
                  13 Nov 2017 12:29:00.000          168.285            -51.716    60427.945644
                  13 Nov 2017 12:30:00.000          168.480            -51.927    60527.590583
                  13 Nov 2017 12:31:00.000          168.675            -52.138    60626.852261
                  13 Nov 2017 12:32:00.000          168.872            -52.349    60725.723876
                  13 Nov 2017 12:33:00.000          169.070            -52.561    60824.198682
                  13 Nov 2017 12:34:00.000          169.269            -52.772    60922.269986
                  13 Nov 2017 12:35:00.000          169.468            -52.983    61019.931154
                  13 Nov 2017 12:36:00.000          169.669            -53.195    61117.175605
                  13 Nov 2017 12:37:00.000          169.871            -53.406    61213.996819
                  13 Nov 2017 12:38:00.000          170.074            -53.617    61310.388328
                  13 Nov 2017 12:39:00.000          170.277            -53.829    61406.343726
                  13 Nov 2017 12:40:00.000          170.482            -54.040    61501.856661
                  13 Nov 2017 12:41:00.000          170.689            -54.251    61596.920840
                  13 Nov 2017 12:42:00.000          170.896            -54.462    61691.530030
                  13 Nov 2017 12:43:00.000          171.105            -54.673    61785.678055
                  13 Nov 2017 12:44:00.000          171.315            -54.884    61879.358796
                  13 Nov 2017 12:45:00.000          171.526            -55.094    61972.566198
                  13 Nov 2017 12:46:00.000          171.738            -55.305    62065.294260
                  13 Nov 2017 12:47:00.000          171.952            -55.516    62157.537045
                  13 Nov 2017 12:48:00.000          172.168            -55.726    62249.288673
                  13 Nov 2017 12:49:00.000          172.385            -55.936    62340.543327
                  13 Nov 2017 12:50:00.000          172.603            -56.147    62431.295247
                  13 Nov 2017 12:51:00.000          172.823            -56.357    62521.538736
                  13 Nov 2017 12:52:00.000          173.045            -56.566    62611.268158
                  13 Nov 2017 12:53:00.000          173.268            -56.776    62700.477937
                  13 Nov 2017 12:54:00.000          173.493            -56.985    62789.162560
                  13 Nov 2017 12:55:00.000          173.719            -57.195    62877.316575
                  13 Nov 2017 12:56:00.000          173.947            -57.404    62964.934590
                  13 Nov 2017 12:57:00.000          174.177            -57.613    63052.011278
                  13 Nov 2017 12:58:00.000          174.409            -57.821    63138.541373
                  13 Nov 2017 12:59:00.000          174.643            -58.030    63224.519671
                  13 Nov 2017 13:00:00.000          174.879            -58.238    63309.941031
                  13 Nov 2017 13:01:00.000          175.117            -58.445    63394.800376
                  13 Nov 2017 13:02:00.000          175.357            -58.653    63479.092690
                  13 Nov 2017 13:03:00.000          175.598            -58.860    63562.813022
                  13 Nov 2017 13:04:00.000          175.843            -59.067    63645.956484
                  13 Nov 2017 13:05:00.000          176.089            -59.274    63728.518250
                  13 Nov 2017 13:06:00.000          176.337            -59.480    63810.493561
                  13 Nov 2017 13:07:00.000          176.588            -59.686    63891.877720
                  13 Nov 2017 13:08:00.000          176.841            -59.892    63972.666092
                  13 Nov 2017 13:09:00.000          177.097            -60.097    64052.854111
                  13 Nov 2017 13:10:00.000          177.355            -60.302    64132.437272
                  13 Nov 2017 13:11:00.000          177.616            -60.506    64211.411136
                  13 Nov 2017 13:12:00.000          177.879            -60.711    64289.771326
                  13 Nov 2017 13:13:00.000          178.145            -60.914    64367.513535
                  13 Nov 2017 13:14:00.000          178.413            -61.117    64444.633516
                  13 Nov 2017 13:15:00.000          178.685            -61.320    64521.127089
                  13 Nov 2017 13:16:00.000          178.959            -61.523    64596.990140
                  13 Nov 2017 13:17:00.000          179.236            -61.724    64672.218620
                  13 Nov 2017 13:18:00.000          179.516            -61.926    64746.808545
                  13 Nov 2017 13:19:00.000          179.799            -62.127    64820.755996
                  13 Nov 2017 13:20:00.000          180.085            -62.327    64894.057121
                  13 Nov 2017 13:21:00.000          180.375            -62.527    64966.708133
                  13 Nov 2017 13:22:00.000          180.668            -62.726    65038.705312
                  13 Nov 2017 13:23:00.000          180.964            -62.925    65110.045003
                  13 Nov 2017 13:24:00.000          181.263            -63.123    65180.723616
                  13 Nov 2017 13:25:00.000          181.566            -63.320    65250.737631
                  13 Nov 2017 13:26:00.000          181.873            -63.517    65320.083590
                  13 Nov 2017 13:27:00.000          182.183            -63.713    65388.758105
                  13 Nov 2017 13:28:00.000          182.497            -63.909    65456.757851
                  13 Nov 2017 13:29:00.000          182.814            -64.104    65524.079573
                  13 Nov 2017 13:30:00.000          183.136            -64.298    65590.720081
                  13 Nov 2017 13:31:00.000          183.461            -64.492    65656.676251
                  13 Nov 2017 13:32:00.000          183.791            -64.684    65721.945028
                  13 Nov 2017 13:33:00.000          184.125            -64.876    65786.523421
                  13 Nov 2017 13:34:00.000          184.462            -65.068    65850.408509
                  13 Nov 2017 13:35:00.000          184.805            -65.258    65913.597436
                  13 Nov 2017 13:36:00.000          185.151            -65.448    65976.087413
                  13 Nov 2017 13:37:00.000          185.503            -65.637    66037.875720
                  13 Nov 2017 13:38:00.000          185.858            -65.825    66098.959702
                  13 Nov 2017 13:39:00.000          186.219            -66.012    66159.336773
                  13 Nov 2017 13:40:00.000          186.584            -66.198    66219.004414
                  13 Nov 2017 13:41:00.000          186.954            -66.383    66277.960172
                  13 Nov 2017 13:42:00.000          187.329            -66.567    66336.201689
                  13 Nov 2017 13:43:00.000          187.709            -66.751    66393.726595
                  13 Nov 2017 13:44:00.000          188.094            -66.933    66450.532668
                  13 Nov 2017 13:45:00.000          188.485            -67.114    66506.617724
                  13 Nov 2017 13:46:00.000          188.881            -67.294    66561.979649
                  13 Nov 2017 13:47:00.000          189.282            -67.474    66616.616396
                  13 Nov 2017 13:48:00.000          189.689            -67.652    66670.525987
                  13 Nov 2017 13:49:00.000          190.102            -67.829    66723.706508
                  13 Nov 2017 13:50:00.000          190.520            -68.004    66776.156117
                  13 Nov 2017 13:51:00.000          190.945            -68.179    66827.873036
                  13 Nov 2017 13:52:00.000          191.375            -68.352    66878.855558
                  13 Nov 2017 13:53:00.000          191.812            -68.524    66929.102041
                  13 Nov 2017 13:54:00.000          192.254            -68.695    66978.610913
                  13 Nov 2017 13:55:00.000          192.703            -68.865    67027.380667
                  13 Nov 2017 13:56:00.000          193.159            -69.033    67075.409867
                  13 Nov 2017 13:57:00.000          193.620            -69.200    67122.697143
                  13 Nov 2017 13:58:00.000          194.089            -69.365    67169.241192
                  13 Nov 2017 13:59:00.000          194.564            -69.529    67215.040781
                  13 Nov 2017 14:00:00.000          195.046            -69.691    67260.094744
                  13 Nov 2017 14:01:00.000          195.535            -69.852    67304.401980
                  13 Nov 2017 14:02:00.000          196.031            -70.012    67347.961461
                  13 Nov 2017 14:03:00.000          196.534            -70.170    67390.772222
                  13 Nov 2017 14:04:00.000          197.045            -70.326    67432.833368
                  13 Nov 2017 14:05:00.000          197.562            -70.481    67474.144073
                  13 Nov 2017 14:06:00.000          198.087            -70.633    67514.703575
                  13 Nov 2017 14:07:00.000          198.620            -70.785    67554.511183
                  13 Nov 2017 14:08:00.000          199.160            -70.934    67593.566272
                  13 Nov 2017 14:09:00.000          199.708            -71.082    67631.868286
                  13 Nov 2017 14:10:00.000          200.264            -71.227    67669.416735
                  13 Nov 2017 14:11:00.000          200.827            -71.371    67706.211199
                  13 Nov 2017 14:12:00.000          201.398            -71.513    67742.251322
                  13 Nov 2017 14:13:00.000          201.977            -71.653    67777.536819
                  13 Nov 2017 14:14:00.000          202.564            -71.791    67812.067470
                  13 Nov 2017 14:15:00.000          203.160            -71.927    67845.843125
                  13 Nov 2017 14:16:00.000          203.763            -72.061    67878.863699
                  13 Nov 2017 14:17:00.000          204.374            -72.192    67911.129175
                  13 Nov 2017 14:18:00.000          204.994            -72.322    67942.639604
                  13 Nov 2017 14:19:00.000          205.622            -72.449    67973.395105
                  13 Nov 2017 14:20:00.000          206.258            -72.574    68003.395861
                  13 Nov 2017 14:21:00.000          206.902            -72.696    68032.642127
                  13 Nov 2017 14:22:00.000          207.554            -72.817    68061.134246
                  13 Nov 2017 14:23:00.000          208.215            -72.934    68088.872554
                  13 Nov 2017 14:24:00.000          208.884            -73.050    68115.857529
                  13 Nov 2017 14:25:00.000          209.561            -73.163    68142.089693
                  13 Nov 2017 14:26:00.000          210.246            -73.273    68167.569632
                  13 Nov 2017 14:27:00.000          210.939            -73.381    68192.298001
