src/Handle_MEO_Access/DATA/meo-22-to-meo-3.txt

Satellite-MEO-22-To-Satellite-MEO-31, Satellite-MEO-32, Satellite-MEO-38, Satellite-MEO-39:  Inview Azimuth, Elevation, & Range


MEO-22-To-MEO-31
----------------
                         Time (UTCG)          Azimuth (deg)    Elevation (deg)     Range (km) 
                  ------------------------    -------------    ---------------    ------------
                  13 Nov 2017 04:00:00.000           59.588            -18.850    18014.347667
                  13 Nov 2017 04:01:00.000           59.346            -18.723    17897.724161
                  13 Nov 2017 04:02:00.000           59.103            -18.596    17780.037627
                  13 Nov 2017 04:03:00.000           58.859            -18.467    17661.298307
                  13 Nov 2017 04:04:00.000           58.614            -18.337    17541.516599
                  13 Nov 2017 04:05:00.000           58.368            -18.207    17420.703064
                  13 Nov 2017 04:06:00.000           58.121            -18.075    17298.868427
                  13 Nov 2017 04:07:00.000           57.872            -17.942    17176.023580
                  13 Nov 2017 04:08:00.000           57.622            -17.808    17052.179589
                  13 Nov 2017 04:09:00.000           57.372            -17.674    16927.347694
                  13 Nov 2017 04:10:00.000           57.119            -17.538    16801.539318
                  13 Nov 2017 04:11:00.000           56.865            -17.401    16674.766067
                  13 Nov 2017 04:12:00.000           56.610            -17.264    16547.039736
                  13 Nov 2017 04:13:00.000           56.353            -17.126    16418.372317
                  13 Nov 2017 04:14:00.000           56.095            -16.986    16288.776001
                  13 Nov 2017 04:15:00.000           55.834            -16.846    16158.263185
                  13 Nov 2017 04:16:00.000           55.572            -16.705    16026.846479
                  13 Nov 2017 04:17:00.000           55.308            -16.563    15894.538712
                  13 Nov 2017 04:18:00.000           55.042            -16.420    15761.352938
                  13 Nov 2017 04:19:00.000           54.774            -16.277    15627.302446
                  13 Nov 2017 04:20:00.000           54.504            -16.132    15492.400764
                  13 Nov 2017 04:21:00.000           54.231            -15.987    15356.661672
                  13 Nov 2017 04:22:00.000           53.956            -15.841    15220.099209
                  13 Nov 2017 04:23:00.000           53.679            -15.695    15082.727680
                  13 Nov 2017 04:24:00.000           53.399            -15.547    14944.561672
                  13 Nov 2017 04:25:00.000           53.116            -15.399    14805.616059
                  13 Nov 2017 04:26:00.000           52.830            -15.250    14665.906018
                  13 Nov 2017 04:27:00.000           52.541            -15.101    14525.447040
                  13 Nov 2017 04:28:00.000           52.249            -14.951    14384.254942
                  13 Nov 2017 04:29:00.000           51.953            -14.800    14242.345885
                  13 Nov 2017 04:30:00.000           51.655            -14.648    14099.736383
                  13 Nov 2017 04:31:00.000           51.352            -14.496    13956.443328
                  13 Nov 2017 04:32:00.000           51.046            -14.343    13812.483998
                  13 Nov 2017 04:33:00.000           50.735            -14.190    13667.876084
                  13 Nov 2017 04:34:00.000           50.421            -14.036    13522.637707
                  13 Nov 2017 04:35:00.000           50.102            -13.882    13376.787429
                  13 Nov 2017 04:36:00.000           49.778            -13.727    13230.344297
                  13 Nov 2017 04:37:00.000           49.450            -13.571    13083.327851
                  13 Nov 2017 04:38:00.000           49.117            -13.415    12935.758160
                  13 Nov 2017 04:39:00.000           48.778            -13.259    12787.655840
                  13 Nov 2017 04:40:00.000           48.434            -13.102    12639.042096
                  13 Nov 2017 04:41:00.000           48.084            -12.945    12489.938747
                  13 Nov 2017 04:42:00.000           47.728            -12.787    12340.368264
                  13 Nov 2017 04:43:00.000           47.365            -12.629    12190.353807
                  13 Nov 2017 04:44:00.000           46.996            -12.471    12039.919267
                  13 Nov 2017 04:45:00.000           46.620            -12.312    11889.089309
                  13 Nov 2017 04:46:00.000           46.237            -12.153    11737.889419
                  13 Nov 2017 04:47:00.000           45.846            -11.994    11586.345956
                  13 Nov 2017 04:48:00.000           45.446            -11.834    11434.486206
                  13 Nov 2017 04:49:00.000           45.039            -11.674    11282.338442
                  13 Nov 2017 04:50:00.000           44.622            -11.515    11129.931985
                  13 Nov 2017 04:51:00.000           44.197            -11.355    10977.297280
                  13 Nov 2017 04:52:00.000           43.761            -11.194    10824.465962
                  13 Nov 2017 04:53:00.000           43.315            -11.034    10671.470944
                  13 Nov 2017 04:54:00.000           42.859            -10.874    10518.346497
                  13 Nov 2017 04:55:00.000           42.391            -10.714    10365.128352
                  13 Nov 2017 04:56:00.000           41.911            -10.553    10211.853794
                  13 Nov 2017 04:57:00.000           41.419            -10.393    10058.561780
                  13 Nov 2017 04:58:00.000           40.914            -10.233     9905.293052
                  13 Nov 2017 04:59:00.000           40.395            -10.073     9752.090269
                  13 Nov 2017 05:00:00.000           39.861             -9.913     9598.998146
                  13 Nov 2017 05:01:00.000           39.312             -9.754     9446.063607
                  13 Nov 2017 05:02:00.000           38.747             -9.595     9293.335946
                  13 Nov 2017 05:03:00.000           38.166             -9.436     9140.867008
                  13 Nov 2017 05:04:00.000           37.566             -9.277     8988.711375
                  13 Nov 2017 05:05:00.000           36.947             -9.119     8836.926582
                  13 Nov 2017 05:06:00.000           36.309             -8.962     8685.573333
                  13 Nov 2017 05:07:00.000           35.650             -8.805     8534.715748
                  13 Nov 2017 05:08:00.000           34.970             -8.649     8384.421625
                  13 Nov 2017 05:09:00.000           34.266             -8.493     8234.762717
                  13 Nov 2017 05:10:00.000           33.538             -8.338     8085.815043
                  13 Nov 2017 05:11:00.000           32.784             -8.185     7937.659207
                  13 Nov 2017 05:12:00.000           32.003             -8.032     7790.380752
                  13 Nov 2017 05:13:00.000           31.194             -7.880     7644.070532
                  13 Nov 2017 05:14:00.000           30.355             -7.729     7498.825112
                  13 Nov 2017 05:15:00.000           29.484             -7.580     7354.747191
                  13 Nov 2017 05:16:00.000           28.580             -7.432     7211.946047
                  13 Nov 2017 05:17:00.000           27.641             -7.285     7070.538012
                  13 Nov 2017 05:18:00.000           26.665             -7.140     6930.646961
                  13 Nov 2017 05:19:00.000           25.651             -6.997     6792.404819
                  13 Nov 2017 05:20:00.000           24.595             -6.856     6655.952085
                  13 Nov 2017 05:21:00.000           23.497             -6.717     6521.438358
                  13 Nov 2017 05:22:00.000           22.355             -6.580     6389.022863
                  13 Nov 2017 05:23:00.000           21.165             -6.445     6258.874956
                  13 Nov 2017 05:24:00.000           19.926             -6.313     6131.174608
                  13 Nov 2017 05:25:00.000           18.636             -6.184     6006.112838
                  13 Nov 2017 05:26:00.000           17.292             -6.058     5883.892070
                  13 Nov 2017 05:27:00.000           15.893             -5.935     5764.726403
                  13 Nov 2017 05:28:00.000           14.437             -5.815     5648.841830
                  13 Nov 2017 05:29:00.000           12.921             -5.699     5536.475858
                  13 Nov 2017 05:30:00.000           11.344             -5.587     5427.877778
                  13 Nov 2017 05:31:00.000            9.705             -5.479     5323.307829
                  13 Nov 2017 05:32:00.000            8.001             -5.375     5223.036476
                  13 Nov 2017 05:33:00.000            6.234             -5.276     5127.343240
                  13 Nov 2017 05:34:00.000            4.401             -5.183     5036.515137
                  13 Nov 2017 05:35:00.000            2.503             -5.094     4950.844768
                  13 Nov 2017 05:36:00.000            0.541             -5.011     4870.627332
                  13 Nov 2017 05:37:00.000          358.516             -4.935     4796.158332
                  13 Nov 2017 05:38:00.000          356.431             -4.864     4727.729593
                  13 Nov 2017 05:39:00.000          354.287             -4.800     4665.625402
                  13 Nov 2017 05:40:00.000          352.090             -4.743     4610.118281
                  13 Nov 2017 05:41:00.000          349.843             -4.693     4561.463736
                  13 Nov 2017 05:42:00.000          347.552             -4.650     4519.896297
                  13 Nov 2017 05:43:00.000          345.223             -4.614     4485.624148
                  13 Nov 2017 05:44:00.000          342.862             -4.587     4458.824691
                  13 Nov 2017 05:45:00.000          340.479             -4.567     4439.640612
                  13 Nov 2017 05:46:00.000          338.080             -4.555     4428.175602
                  13 Nov 2017 05:47:00.000          335.674             -4.551     4424.492914
                  13 Nov 2017 05:48:00.000          333.269             -4.556     4428.612945
                  13 Nov 2017 05:49:00.000          330.875             -4.568     4440.513077
                  13 Nov 2017 05:50:00.000          328.500             -4.588     4460.127541
                  13 Nov 2017 05:51:00.000          326.151             -4.616     4487.350210
                  13 Nov 2017 05:52:00.000          323.837             -4.652     4522.036550
                  13 Nov 2017 05:53:00.000          321.564             -4.695     4564.007327
                  13 Nov 2017 05:54:00.000          319.338             -4.746     4613.052999
                  13 Nov 2017 05:55:00.000          317.165             -4.803     4668.937396
                  13 Nov 2017 05:56:00.000          315.049             -4.868     4731.403900
                  13 Nov 2017 05:57:00.000          312.994             -4.939     4800.179349
                  13 Nov 2017 05:58:00.000          311.002             -5.016     4874.978923
                  13 Nov 2017 05:59:00.000          309.077             -5.099     4955.510693
                  13 Nov 2017 06:00:00.000          307.218             -5.188     5041.478789
                  13 Nov 2017 06:01:00.000          305.427             -5.282     5132.588060
                  13 Nov 2017 06:02:00.000          303.704             -5.381     5228.546268
                  13 Nov 2017 06:03:00.000          302.049             -5.485     5329.066768
                  13 Nov 2017 06:04:00.000          300.460             -5.593     5433.870505
                  13 Nov 2017 06:05:00.000          298.936             -5.705     5542.687558
                  13 Nov 2017 06:06:00.000          297.476             -5.821     5655.258476
                  13 Nov 2017 06:07:00.000          296.079             -5.941     5771.334300
                  13 Nov 2017 06:08:00.000          294.741             -6.065     5890.678198
                  13 Nov 2017 06:09:00.000          293.462             -6.191     6013.064922
                  13 Nov 2017 06:10:00.000          292.239             -6.321     6138.281032
                  13 Nov 2017 06:11:00.000          291.070             -6.453     6266.124745
                  13 Nov 2017 06:12:00.000          289.953             -6.588     6396.405672
                  13 Nov 2017 06:13:00.000          288.885             -6.725     6528.944443
                  13 Nov 2017 06:14:00.000          287.865             -6.864     6663.572281
                  13 Nov 2017 06:15:00.000          286.890             -7.005     6800.130512
                  13 Nov 2017 06:16:00.000          285.959             -7.149     6938.470058
                  13 Nov 2017 06:17:00.000          285.069             -7.294     7078.450913
                  13 Nov 2017 06:18:00.000          284.219             -7.440     7219.941613
                  13 Nov 2017 06:19:00.000          283.407             -7.588     7362.818718
                  13 Nov 2017 06:20:00.000          282.630             -7.738     7506.966469
                  13 Nov 2017 06:21:00.000          281.888             -7.888     7652.275631
                  13 Nov 2017 06:22:00.000          281.178             -8.040     7798.644027
                  13 Nov 2017 06:23:00.000          280.500             -8.193     7945.975423
                  13 Nov 2017 06:24:00.000          279.852             -8.347     8094.179270
                  13 Nov 2017 06:25:00.000          279.232             -8.502     8243.170310
                  13 Nov 2017 06:26:00.000          278.639             -8.658     8392.868203
                  13 Nov 2017 06:27:00.000          278.071             -8.814     8543.197177
                  13 Nov 2017 06:28:00.000          277.529             -8.971     8694.085707
                  13 Nov 2017 06:29:00.000          277.010             -9.128     8845.466207
                  13 Nov 2017 06:30:00.000          276.513             -9.286     8997.274755
                  13 Nov 2017 06:31:00.000          276.038             -9.445     9149.450828
                  13 Nov 2017 06:32:00.000          275.584             -9.604     9301.937063
                  13 Nov 2017 06:33:00.000          275.149             -9.763     9454.679034
                  13 Nov 2017 06:34:00.000          274.734             -9.922     9607.625044
                  13 Nov 2017 06:35:00.000          274.336            -10.082     9760.725936
                  13 Nov 2017 06:36:00.000          273.955            -10.242     9913.934912
                  13 Nov 2017 06:37:00.000          273.592            -10.402    10067.207376
                  13 Nov 2017 06:38:00.000          273.244            -10.562    10220.500779
                  13 Nov 2017 06:39:00.000          272.911            -10.723    10373.774481
                  13 Nov 2017 06:40:00.000          272.593            -10.883    10526.989623
                  13 Nov 2017 06:41:00.000          272.289            -11.043    10680.109008
                  13 Nov 2017 06:42:00.000          271.999            -11.203    10833.096989
                  13 Nov 2017 06:43:00.000          271.721            -11.364    10985.919371
                  13 Nov 2017 06:44:00.000          271.457            -11.524    11138.543318
                  13 Nov 2017 06:45:00.000          271.204            -11.683    11290.937259
                  13 Nov 2017 06:46:00.000          270.963            -11.843    11443.070818
                  13 Nov 2017 06:47:00.000          270.733            -12.003    11594.914731
                  13 Nov 2017 06:48:00.000          270.514            -12.162    11746.440781
                  13 Nov 2017 06:49:00.000          270.306            -12.321    11897.621737
                  13 Nov 2017 06:50:00.000          270.107            -12.480    12048.431288
                  13 Nov 2017 06:51:00.000          269.919            -12.638    12198.843996
                  13 Nov 2017 06:52:00.000          269.739            -12.796    12348.835241
                  13 Nov 2017 06:53:00.000          269.569            -12.954    12498.381172
                  13 Nov 2017 06:54:00.000          269.408            -13.111    12647.458668
                  13 Nov 2017 06:55:00.000          269.256            -13.268    12796.045297
                  13 Nov 2017 06:56:00.000          269.111            -13.424    12944.119274
                  13 Nov 2017 06:57:00.000          268.975            -13.580    13091.659428
                  13 Nov 2017 06:58:00.000          268.847            -13.735    13238.645172
                  13 Nov 2017 06:59:00.000          268.726            -13.890    13385.056470
                  13 Nov 2017 07:00:00.000          268.612            -14.045    13530.873809
                  13 Nov 2017 07:01:00.000          268.506            -14.199    13676.078173
                  13 Nov 2017 07:02:00.000          268.406            -14.352    13820.651018
                  13 Nov 2017 07:03:00.000          268.314            -14.505    13964.574249
                  13 Nov 2017 07:04:00.000          268.228            -14.657    14107.830202
                  13 Nov 2017 07:05:00.000          268.148            -14.808    14250.401617
                  13 Nov 2017 07:06:00.000          268.074            -14.959    14392.271626
                  13 Nov 2017 07:07:00.000          268.007            -15.109    14533.423735
                  13 Nov 2017 07:08:00.000          267.945            -15.259    14673.841801
                  13 Nov 2017 07:09:00.000          267.889            -15.408    14813.510026
                  13 Nov 2017 07:10:00.000          267.839            -15.556    14952.412937
                  13 Nov 2017 07:11:00.000          267.794            -15.703    15090.535375
                  13 Nov 2017 07:12:00.000          267.755            -15.850    15227.862480
                  13 Nov 2017 07:13:00.000          267.721            -15.996    15364.379683
                  13 Nov 2017 07:14:00.000          267.692            -16.141    15500.072693
                  13 Nov 2017 07:15:00.000          267.668            -16.285    15634.927485
                  13 Nov 2017 07:16:00.000          267.648            -16.429    15768.930296
                  13 Nov 2017 07:17:00.000          267.634            -16.571    15902.067608
                  13 Nov 2017 07:18:00.000          267.624            -16.713    16034.326148
                  13 Nov 2017 07:19:00.000          267.619            -16.854    16165.692873
                  13 Nov 2017 07:20:00.000          267.618            -16.994    16296.154967
                  13 Nov 2017 07:21:00.000          267.622            -17.133    16425.699832
                  13 Nov 2017 07:22:00.000          267.629            -17.272    16554.315083
                  13 Nov 2017 07:23:00.000          267.642            -17.409    16681.988539
                  13 Nov 2017 07:24:00.000          267.658            -17.546    16808.708221
                  13 Nov 2017 07:25:00.000          267.678            -17.681    16934.462343
                  13 Nov 2017 07:26:00.000          267.702            -17.816    17059.239310
                  13 Nov 2017 07:27:00.000          267.730            -17.950    17183.027709
                  13 Nov 2017 07:28:00.000          267.762            -18.082    17305.816311
                  13 Nov 2017 07:29:00.000          267.797            -18.214    17427.594059
                  13 Nov 2017 07:30:00.000          267.836            -18.345    17548.350071
                  13 Nov 2017 07:31:00.000          267.879            -18.474    17668.073630
                  13 Nov 2017 07:32:00.000          267.925            -18.603    17786.754185
                  13 Nov 2017 07:33:00.000          267.975            -18.731    17904.381348
                  13 Nov 2017 07:34:00.000          268.028            -18.857    18020.944885
                  13 Nov 2017 07:35:00.000          268.085            -18.983    18136.434719
                  13 Nov 2017 07:36:00.000          268.145            -19.107    18250.840927
                  13 Nov 2017 07:37:00.000          268.208            -19.230    18364.153641
                  13 Nov 2017 07:38:00.000          268.274            -19.352    18476.363417
                  13 Nov 2017 07:39:00.000          268.343            -19.473    18587.460680
                  13 Nov 2017 07:40:00.000          268.415            -19.593    18697.436088
                  13 Nov 2017 07:41:00.000          268.491            -19.712    18806.280441
                  13 Nov 2017 07:42:00.000          268.569            -19.830    18913.984678
                  13 Nov 2017 07:43:00.000          268.651            -19.946    19020.539873
                  13 Nov 2017 07:44:00.000          268.735            -20.061    19125.937236
                  13 Nov 2017 07:45:00.000          268.822            -20.176    19230.168110
                  13 Nov 2017 07:46:00.000          268.912            -20.288    19333.223970
                  13 Nov 2017 07:47:00.000          269.004            -20.400    19435.096421
                  13 Nov 2017 07:48:00.000          269.100            -20.510    19535.777198
                  13 Nov 2017 07:49:00.000          269.197            -20.620    19635.258161
                  13 Nov 2017 07:50:00.000          269.298            -20.728    19733.531300
                  13 Nov 2017 07:51:00.000          269.401            -20.834    19830.588727
                  13 Nov 2017 07:52:00.000          269.507            -20.940    19926.422681
                  13 Nov 2017 07:53:00.000          269.615            -21.044    20021.025522
                  13 Nov 2017 07:54:00.000          269.726            -21.147    20114.389734
                  13 Nov 2017 07:55:00.000          269.839            -21.248    20206.507922
                  13 Nov 2017 07:56:00.000          269.954            -21.348    20297.372810
                  13 Nov 2017 07:57:00.000          270.072            -21.447    20386.977244
                  13 Nov 2017 07:58:00.000          270.192            -21.545    20475.314188
                  13 Nov 2017 07:59:00.000          270.315            -21.641    20562.376723
                  13 Nov 2017 08:00:00.000          270.439            -21.736    20648.158051
                  13 Nov 2017 08:01:00.000          270.566            -21.829    20732.651487
                  13 Nov 2017 08:02:00.000          270.696            -21.922    20815.850395
                  13 Nov 2017 08:03:00.000          270.827            -22.012    20897.748467
                  13 Nov 2017 08:04:00.000          270.960            -22.102    20978.339295
                  13 Nov 2017 08:05:00.000          271.096            -22.190    21057.616661
                  13 Nov 2017 08:06:00.000          271.233            -22.276    21135.574457
                  13 Nov 2017 08:07:00.000          271.373            -22.361    21212.206693
                  13 Nov 2017 08:08:00.000          271.514            -22.445    21287.507491
                  13 Nov 2017 08:09:00.000          271.658            -22.527    21361.471086
                  13 Nov 2017 08:10:00.000          271.804            -22.608    21434.091827
                  13 Nov 2017 08:11:00.000          271.951            -22.687    21505.364175
                  13 Nov 2017 08:12:00.000          272.100            -22.765    21575.282703
                  13 Nov 2017 08:13:00.000          272.251            -22.842    21643.842098
                  13 Nov 2017 08:14:00.000          272.404            -22.917    21711.037157
                  13 Nov 2017 08:15:00.000          272.559            -22.990    21776.862788
                  13 Nov 2017 08:16:00.000          272.716            -23.062    21841.314013
                  13 Nov 2017 08:17:00.000          272.874            -23.133    21904.385964
                  13 Nov 2017 08:18:00.000          273.034            -23.201    21966.073883
                  13 Nov 2017 08:19:00.000          273.196            -23.269    22026.373124
                  13 Nov 2017 08:20:00.000          273.359            -23.335    22085.279151
                  13 Nov 2017 08:21:00.000          273.524            -23.399    22142.787538
                  13 Nov 2017 08:22:00.000          273.691            -23.462    22198.893972
                  13 Nov 2017 08:23:00.000          273.859            -23.523    22253.594246
                  13 Nov 2017 08:24:00.000          274.029            -23.583    22306.884268
                  13 Nov 2017 08:25:00.000          274.200            -23.641    22358.759994
                  13 Nov 2017 08:26:00.000          274.373            -23.698    22409.217666
                  13 Nov 2017 08:27:00.000          274.547            -23.753    22458.253461
                  13 Nov 2017 08:28:00.000          274.723            -23.806    22505.863724
                  13 Nov 2017 08:29:00.000          274.900            -23.858    22552.044910
                  13 Nov 2017 08:30:00.000          275.078            -23.909    22596.793581
                  13 Nov 2017 08:31:00.000          275.258            -23.957    22640.106414
                  13 Nov 2017 08:32:00.000          275.440            -24.004    22681.980189
                  13 Nov 2017 08:33:00.000          275.622            -24.050    22722.411801
                  13 Nov 2017 08:34:00.000          275.806            -24.094    22761.398250
                  13 Nov 2017 08:35:00.000          275.991            -24.136    22798.936649
                  13 Nov 2017 08:36:00.000          276.178            -24.177    22835.024218
                  13 Nov 2017 08:37:00.000          276.365            -24.216    22869.658286
                  13 Nov 2017 08:38:00.000          276.554            -24.253    22902.836292
                  13 Nov 2017 08:39:00.000          276.744            -24.289    22934.555786
                  13 Nov 2017 08:40:00.000          276.935            -24.323    22964.814423
                  13 Nov 2017 08:41:00.000          277.128            -24.355    22993.609971
                  13 Nov 2017 08:42:00.000          277.321            -24.386    23020.940305
                  13 Nov 2017 08:43:00.000          277.516            -24.415    23046.803410
                  13 Nov 2017 08:44:00.000          277.712            -24.443    23071.197380
                  13 Nov 2017 08:45:00.000          277.908            -24.469    23094.120418
                  13 Nov 2017 08:46:00.000          278.106            -24.493    23115.570793
                  13 Nov 2017 08:47:00.000          278.305            -24.516    23135.547012
                  13 Nov 2017 08:48:00.000          278.504            -24.536    23154.047562
                  13 Nov 2017 08:49:00.000          278.705            -24.556    23171.071081
                  13 Nov 2017 08:50:00.000          278.907            -24.573    23186.616319
                  13 Nov 2017 08:51:00.000          279.109            -24.589    23200.682132
                  13 Nov 2017 08:52:00.000          279.313            -24.603    23213.267487
                  13 Nov 2017 08:53:00.000          279.517            -24.616    23224.371459
                  13 Nov 2017 08:54:00.000          279.722            -24.627    23233.993232
                  13 Nov 2017 08:55:00.000          279.928            -24.636    23242.132100
                  13 Nov 2017 08:56:00.000          280.135            -24.644    23248.787466
                  13 Nov 2017 08:57:00.000          280.342            -24.649    23253.958839
                  13 Nov 2017 08:58:00.000          280.550            -24.654    23257.645842
                  13 Nov 2017 08:59:00.000          280.760            -24.656    23259.848203
                  13 Nov 2017 09:00:00.000          280.969            -24.657    23260.565761
                  13 Nov 2017 09:01:00.000          281.180            -24.656    23259.798463
                  13 Nov 2017 09:02:00.000          281.391            -24.653    23257.546367
                  13 Nov 2017 09:03:00.000          281.603            -24.649    23253.809636
                  13 Nov 2017 09:04:00.000          281.815            -24.643    23248.588547
                  13 Nov 2017 09:05:00.000          282.029            -24.636    23241.883482
                  13 Nov 2017 09:06:00.000          282.242            -24.626    23233.694935
                  13 Nov 2017 09:07:00.000          282.457            -24.616    23224.023477
                  13 Nov 2017 09:08:00.000          282.672            -24.603    23212.869879
                  13 Nov 2017 09:09:00.000          282.887            -24.589    23200.234929
                  13 Nov 2017 09:10:00.000          283.103            -24.573    23186.119558
                  13 Nov 2017 09:11:00.000          283.320            -24.555    23170.524802
                  13 Nov 2017 09:12:00.000          283.537            -24.536    23153.451809
                  13 Nov 2017 09:13:00.000          283.754            -24.515    23134.901834
                  13 Nov 2017 09:14:00.000          283.972            -24.492    23114.876241
                  13 Nov 2017 09:15:00.000          284.191            -24.468    23093.376506
                  13 Nov 2017 09:16:00.000          284.410            -24.442    23070.404211
                  13 Nov 2017 09:17:00.000          284.629            -24.414    23045.961048
                  13 Nov 2017 09:18:00.000          284.849            -24.385    23020.048818
                  13 Nov 2017 09:19:00.000          285.069            -24.354    22992.669431
                  13 Nov 2017 09:20:00.000          285.290            -24.322    22963.824906
                  13 Nov 2017 09:21:00.000          285.510            -24.288    22933.517372
                  13 Nov 2017 09:22:00.000          285.732            -24.252    22901.749067
                  13 Nov 2017 09:23:00.000          285.953            -24.214    22868.522337
                  13 Nov 2017 09:24:00.000          286.175            -24.175    22833.839637
                  13 Nov 2017 09:25:00.000          286.398            -24.135    22797.703533
                  13 Nov 2017 09:26:00.000          286.620            -24.092    22760.116699
                  13 Nov 2017 09:27:00.000          286.843            -24.048    22721.081918
                  13 Nov 2017 09:28:00.000          287.066            -24.003    22680.602067
                  13 Nov 2017 09:29:00.000          287.290            -23.956    22638.680181
                  13 Nov 2017 09:30:00.000          287.513            -23.907    22595.319355
                  13 Nov 2017 09:31:00.000          287.737            -23.857    22550.522809
                  13 Nov 2017 09:32:00.000          287.962            -23.805    22504.293874
                  13 Nov 2017 09:33:00.000          288.186            -23.751    22456.635990
                  13 Nov 2017 09:34:00.000          288.411            -23.696    22407.552705
                  13 Nov 2017 09:35:00.000          288.635            -23.639    22357.047679
                  13 Nov 2017 09:36:00.000          288.861            -23.581    22305.124681
                  13 Nov 2017 09:37:00.000          289.086            -23.521    22251.787589
                  13 Nov 2017 09:38:00.000          289.311            -23.460    22197.040391
                  13 Nov 2017 09:39:00.000          289.537            -23.397    22140.887187
                  13 Nov 2017 09:40:00.000          289.763            -23.333    22083.332184
                  13 Nov 2017 09:41:00.000          289.989            -23.267    22024.379702
                  13 Nov 2017 09:42:00.000          290.215            -23.199    21964.034170
                  13 Nov 2017 09:43:00.000          290.441            -23.130    21902.300127
                  13 Nov 2017 09:44:00.000          290.668            -23.060    21839.182224
                  13 Nov 2017 09:45:00.000          290.895            -22.988    21774.685222
                  13 Nov 2017 09:46:00.000          291.122            -22.914    21708.813994
                  13 Nov 2017 09:47:00.000          291.349            -22.839    21641.573522
                  13 Nov 2017 09:48:00.000          291.576            -22.763    21572.968901
                  13 Nov 2017 09:49:00.000          291.803            -22.685    21503.005338
                  13 Nov 2017 09:50:00.000          292.031            -22.605    21431.688145
                  13 Nov 2017 09:51:00.000          292.258            -22.524    21359.022765
                  13 Nov 2017 09:52:00.000          292.486            -22.442    21285.014734
                  13 Nov 2017 09:53:00.000          292.714            -22.358    21209.669708
                  13 Nov 2017 09:54:00.000          292.943            -22.273    21132.993455
                  13 Nov 2017 09:55:00.000          293.171            -22.187    21054.991856
                  13 Nov 2017 09:56:00.000          293.400            -22.099    20975.670908
                  13 Nov 2017 09:57:00.000          293.628            -22.009    20895.036720
                  13 Nov 2017 09:58:00.000          293.857            -21.918    20813.095516
                  13 Nov 2017 09:59:00.000          294.086            -21.826    20729.853636
                  13 Nov 2017 10:00:00.000          294.316            -21.733    20645.317533
                  13 Nov 2017 10:01:00.000          294.545            -21.638    20559.493779
                  13 Nov 2017 10:02:00.000          294.775            -21.542    20472.389060
                  13 Nov 2017 10:03:00.000          295.005            -21.444    20384.010180
                  13 Nov 2017 10:04:00.000          295.236            -21.345    20294.364062
                  13 Nov 2017 10:05:00.000          295.466            -21.245    20203.457745
                  13 Nov 2017 10:06:00.000          295.697            -21.143    20111.298388
                  13 Nov 2017 10:07:00.000          295.928            -21.040    20017.893270
                  13 Nov 2017 10:08:00.000          296.160            -20.936    19923.249792
                  13 Nov 2017 10:09:00.000          296.392            -20.831    19827.375472
                  13 Nov 2017 10:10:00.000          296.624            -20.724    19730.277956
                  13 Nov 2017 10:11:00.000          296.856            -20.616    19631.965009
                  13 Nov 2017 10:12:00.000          297.089            -20.507    19532.444522
                  13 Nov 2017 10:13:00.000          297.323            -20.396    19431.724510
                  13 Nov 2017 10:14:00.000          297.556            -20.285    19329.813121
                  13 Nov 2017 10:15:00.000          297.791            -20.172    19226.718617
                  13 Nov 2017 10:16:00.000          298.025            -20.058    19122.449401
                  13 Nov 2017 10:17:00.000          298.261            -19.942    19017.014003
                  13 Nov 2017 10:18:00.000          298.496            -19.826    18910.421083
                  13 Nov 2017 10:19:00.000          298.733            -19.708    18802.679437
                  13 Nov 2017 10:20:00.000          298.970            -19.589    18693.797994
                  13 Nov 2017 10:21:00.000          299.207            -19.469    18583.785820
                  13 Nov 2017 10:22:00.000          299.445            -19.348    18472.652122
                  13 Nov 2017 10:23:00.000          299.684            -19.226    18360.406243
                  13 Nov 2017 10:24:00.000          299.924            -19.103    18247.057672
                  13 Nov 2017 10:25:00.000          300.165            -18.978    18132.616042
                  13 Nov 2017 10:26:00.000          300.406            -18.853    18017.091134
                  13 Nov 2017 10:27:00.000          300.648            -18.726    17900.492876
                  13 Nov 2017 10:28:00.000          300.891            -18.599    17782.831351
                  13 Nov 2017 10:29:00.000          301.135            -18.470    17664.116795
                  13 Nov 2017 10:30:00.000          301.380            -18.340    17544.359605
                  13 Nov 2017 10:31:00.000          301.626            -18.210    17423.570336
                  13 Nov 2017 10:32:00.000          301.874            -18.078    17301.759709
                  13 Nov 2017 10:33:00.000          302.122            -17.945    17178.938613
                  13 Nov 2017 10:34:00.000          302.372            -17.812    17055.118109
                  13 Nov 2017 10:35:00.000          302.623            -17.677    16930.309435
                  13 Nov 2017 10:36:00.000          302.875            -17.541    16804.524006
                  13 Nov 2017 10:37:00.000          303.129            -17.405    16677.773426
                  13 Nov 2017 10:38:00.000          303.384            -17.267    16550.069486
                  13 Nov 2017 10:39:00.000          303.641            -17.129    16421.424172
                  13 Nov 2017 10:40:00.000          303.899            -16.990    16291.849670
                  13 Nov 2017 10:41:00.000          304.159            -16.849    16161.358373
                  13 Nov 2017 10:42:00.000          304.421            -16.708    16029.962886
                  13 Nov 2017 10:43:00.000          304.685            -16.567    15897.676039
                  13 Nov 2017 10:44:00.000          304.951            -16.424    15764.510867
                  13 Nov 2017 10:45:00.000          305.219            -16.280    15630.480659
                  13 Nov 2017 10:46:00.000          305.490            -16.136    15495.598940
                  13 Nov 2017 10:47:00.000          305.762            -15.991    15359.879482
                  13 Nov 2017 10:48:00.000          306.037            -15.845    15223.336317
                  13 Nov 2017 10:49:00.000          306.315            -15.698    15085.983746
                  13 Nov 2017 10:50:00.000          306.595            -15.551    14947.836348
                  13 Nov 2017 10:51:00.000          306.878            -15.403    14808.908989
                  13 Nov 2017 10:52:00.000          307.163            -15.254    14669.216841
                  13 Nov 2017 10:53:00.000          307.452            -15.104    14528.775386
                  13 Nov 2017 10:54:00.000          307.744            -14.954    14387.600433
                  13 Nov 2017 10:55:00.000          308.040            -14.803    14245.708135
                  13 Nov 2017 10:56:00.000          308.338            -14.652    14103.114998
                  13 Nov 2017 10:57:00.000          308.641            -14.500    13959.837903
                  13 Nov 2017 10:58:00.000          308.947            -14.347    13815.894122
                  13 Nov 2017 10:59:00.000          309.257            -14.194    13671.301333
                  13 Nov 2017 11:00:00.000          309.572            -14.040    13526.077644
                  13 Nov 2017 11:01:00.000          309.891            -13.885    13380.241613
                  13 Nov 2017 11:02:00.000          310.214            -13.730    13233.812273
                  13 Nov 2017 11:03:00.000          310.542            -13.575    13086.809153
                  13 Nov 2017 11:04:00.000          310.876            -13.419    12939.252305
                  13 Nov 2017 11:05:00.000          311.214            -13.262    12791.162336
                  13 Nov 2017 11:06:00.000          311.558            -13.106    12642.560435
                  13 Nov 2017 11:07:00.000          311.908            -12.948    12493.468405
                  13 Nov 2017 11:08:00.000          312.264            -12.791    12343.908703
                  13 Nov 2017 11:09:00.000          312.626            -12.633    12193.904471
                  13 Nov 2017 11:10:00.000          312.995            -12.474    12043.479583
                  13 Nov 2017 11:11:00.000          313.371            -12.316    11892.658685
                  13 Nov 2017 11:12:00.000          313.754            -12.157    11741.467243
                  13 Nov 2017 11:13:00.000          314.145            -11.997    11589.931594
                  13 Nov 2017 11:14:00.000          314.544            -11.838    11438.079003
                  13 Nov 2017 11:15:00.000          314.951            -11.678    11285.937717
                  13 Nov 2017 11:16:00.000          315.368            -11.518    11133.537033
                  13 Nov 2017 11:17:00.000          315.793            -11.358    10980.907368
                  13 Nov 2017 11:18:00.000          316.228            -11.198    10828.080329
                  13 Nov 2017 11:19:00.000          316.674            -11.038    10675.088795
                  13 Nov 2017 11:20:00.000          317.130            -10.878    10521.967008
                  13 Nov 2017 11:21:00.000          317.598            -10.717    10368.750659
                  13 Nov 2017 11:22:00.000          318.077            -10.557    10215.476999
                  13 Nov 2017 11:23:00.000          318.569            -10.397    10062.184942
                  13 Nov 2017 11:24:00.000          319.074            -10.237     9908.915186
                  13 Nov 2017 11:25:00.000          319.593            -10.077     9755.710344
                  13 Nov 2017 11:26:00.000          320.126             -9.917     9602.615081
                  13 Nov 2017 11:27:00.000          320.675             -9.758     9449.676266
                  13 Nov 2017 11:28:00.000          321.239             -9.598     9296.943136
                  13 Nov 2017 11:29:00.000          321.821             -9.440     9144.467472
                  13 Nov 2017 11:30:00.000          322.420             -9.281     8992.303791
                  13 Nov 2017 11:31:00.000          323.038             -9.123     8840.509554
                  13 Nov 2017 11:32:00.000          323.675             -8.966     8689.145389
                  13 Nov 2017 11:33:00.000          324.334             -8.809     8538.275331
                  13 Nov 2017 11:34:00.000          325.014             -8.652     8387.967088
                  13 Nov 2017 11:35:00.000          325.717             -8.497     8238.292318
                  13 Nov 2017 11:36:00.000          326.445             -8.342     8089.326932
                  13 Nov 2017 11:37:00.000          327.198             -8.188     7941.151425
                  13 Nov 2017 11:38:00.000          327.978             -8.035     7793.851217
                  13 Nov 2017 11:39:00.000          328.787             -7.884     7647.517033
                  13 Nov 2017 11:40:00.000          329.625             -7.733     7502.245299
                  13 Nov 2017 11:41:00.000          330.495             -7.583     7358.138561
                  13 Nov 2017 11:42:00.000          331.398             -7.435     7215.305939
                  13 Nov 2017 11:43:00.000          332.336             -7.289     7073.863593
                  13 Nov 2017 11:44:00.000          333.311             -7.144     6933.935211
                  13 Nov 2017 11:45:00.000          334.325             -7.001     6795.652524
                  13 Nov 2017 11:46:00.000          335.379             -6.859     6659.155822
                  13 Nov 2017 11:47:00.000          336.476             -6.720     6524.594484
                  13 Nov 2017 11:48:00.000          337.618             -6.583     6392.127498
                  13 Nov 2017 11:49:00.000          338.807             -6.448     6261.923978
                  13 Nov 2017 11:50:00.000          340.044             -6.316     6134.163638
                  13 Nov 2017 11:51:00.000          341.333             -6.187     6009.037231
                  13 Nov 2017 11:52:00.000          342.675             -6.061     5886.746908
                  13 Nov 2017 11:53:00.000          344.073             -5.937     5767.506491
                  13 Nov 2017 11:54:00.000          345.528             -5.818     5651.541604
                  13 Nov 2017 11:55:00.000          347.042             -5.701     5539.089650
                  13 Nov 2017 11:56:00.000          348.618             -5.589     5430.399568
                  13 Nov 2017 11:57:00.000          350.256             -5.481     5325.731346
                  13 Nov 2017 11:58:00.000          351.958             -5.378     5225.355331
                  13 Nov 2017 11:59:00.000          353.724             -5.279     5129.550625
                  13 Nov 2017 12:00:00.000          355.555             -5.185     5038.604195
                  13 Nov 2017 12:01:00.000          357.452             -5.096     4952.808419
                  13 Nov 2017 12:02:00.000          359.412             -5.013     4872.458698
                  13 Nov 2017 12:03:00.000            1.435             -4.936     4797.850457
                  13 Nov 2017 12:04:00.000            3.519             -4.866     4729.275795
                  13 Nov 2017 12:05:00.000            5.661             -4.801     4667.018942
                  13 Nov 2017 12:06:00.000            7.858             -4.744     4611.352746
                  13 Nov 2017 12:07:00.000           10.103             -4.694     4562.533449
                  13 Nov 2017 12:08:00.000           12.394             -4.651     4520.796001
                  13 Nov 2017 12:09:00.000           14.722             -4.615     4486.349440
                  13 Nov 2017 12:10:00.000           17.082             -4.587     4459.371589
                  13 Nov 2017 12:11:00.000           19.465             -4.567     4440.005977
                  13 Nov 2017 12:12:00.000           21.864             -4.555     4428.357633
                  13 Nov 2017 12:13:00.000           24.270             -4.551     4424.490784
                  13 Nov 2017 12:14:00.000           26.674             -4.555     4428.426496
                  13 Nov 2017 12:15:00.000           29.068             -4.568     4440.143157
                  13 Nov 2017 12:16:00.000           31.444             -4.588     4459.576358
                  13 Nov 2017 12:17:00.000           33.794             -4.615     4486.620916
                  13 Nov 2017 12:18:00.000           36.109             -4.651     4521.132790
                  13 Nov 2017 12:19:00.000           38.383             -4.694     4562.933705
                  13 Nov 2017 12:20:00.000           40.610             -4.745     4611.814560
                  13 Nov 2017 12:21:00.000           42.785             -4.802     4667.540201
                  13 Nov 2017 12:22:00.000           44.902             -4.866     4729.854446
                  13 Nov 2017 12:23:00.000           46.959             -4.937     4798.484024
                  13 Nov 2017 12:24:00.000           48.951             -5.014     4873.144559
                  13 Nov 2017 12:25:00.000           50.879             -5.097     4953.544052
                  13 Nov 2017 12:26:00.000           52.739             -5.186     5039.387061
                  13 Nov 2017 12:27:00.000           54.531             -5.280     5130.378199
                  13 Nov 2017 12:28:00.000           56.256             -5.378     5226.225330
                  13 Nov 2017 12:29:00.000           57.913             -5.482     5326.641242
                  13 Nov 2017 12:30:00.000           59.503             -5.590     5431.346886
                  13 Nov 2017 12:31:00.000           61.028             -5.702     5540.072110
                  13 Nov 2017 12:32:00.000           62.490             -5.819     5652.557020
                  13 Nov 2017 12:33:00.000           63.889             -5.938     5768.552771
                  13 Nov 2017 12:34:00.000           65.228             -6.062     5887.822062
                  13 Nov 2017 12:35:00.000           66.508             -6.188     6010.139368
                  13 Nov 2017 12:36:00.000           67.733             -6.317     6135.290968
                  13 Nov 2017 12:37:00.000           68.903             -6.450     6263.074991
                  13 Nov 2017 12:38:00.000           70.022             -6.584     6393.300414
                  13 Nov 2017 12:39:00.000           71.090             -6.721     6525.787798
                  13 Nov 2017 12:40:00.000           72.112             -6.861     6660.368118
                  13 Nov 2017 12:41:00.000           73.087             -7.002     6796.882470
                  13 Nov 2017 12:42:00.000           74.020             -7.145     6935.181554
                  13 Nov 2017 12:43:00.000           74.910             -7.290     7075.125155
                  13 Nov 2017 12:44:00.000           75.761             -7.437     7216.581614
                  13 Nov 2017 12:45:00.000           76.575             -7.585     7359.427307
                  13 Nov 2017 12:46:00.000           77.352             -7.734     7503.546136
                  13 Nov 2017 12:47:00.000           78.095             -7.885     7648.829041
                  13 Nov 2017 12:48:00.000           78.805             -8.037     7795.173528
                  13 Nov 2017 12:49:00.000           79.484             -8.190     7942.483221
                  13 Nov 2017 12:50:00.000           80.133             -8.344     8090.667443
                  13 Nov 2017 12:51:00.000           80.754             -8.498     8239.640816
                  13 Nov 2017 12:52:00.000           81.348             -8.654     8389.322886
                  13 Nov 2017 12:53:00.000           81.916             -8.810     8539.637779
                  13 Nov 2017 12:54:00.000           82.459             -8.967     8690.513872
                  13 Nov 2017 12:55:00.000           82.978             -9.125     8841.883489
                  13 Nov 2017 12:56:00.000           83.475             -9.283     8993.682624
                  13 Nov 2017 12:57:00.000           83.951             -9.441     9145.850677
                  13 Nov 2017 12:58:00.000           84.405             -9.600     9298.330214
                  13 Nov 2017 12:59:00.000           84.840             -9.759     9451.066741
                  13 Nov 2017 13:00:00.000           85.257             -9.919     9604.008500
                  13 Nov 2017 13:01:00.000           85.655            -10.078     9757.106273
                  13 Nov 2017 13:02:00.000           86.036            -10.238     9910.313212
                  13 Nov 2017 13:03:00.000           86.400            -10.398    10063.584668
                  13 Nov 2017 13:04:00.000           86.748            -10.559    10216.878047
                  13 Nov 2017 13:05:00.000           87.081            -10.719    10370.152664
                  13 Nov 2017 13:06:00.000           87.400            -10.879    10523.369620
                  13 Nov 2017 13:07:00.000           87.704            -11.039    10676.491679
                  13 Nov 2017 13:08:00.000           87.995            -11.200    10829.483161
                  13 Nov 2017 13:09:00.000           88.272            -11.360    10982.309837
                  13 Nov 2017 13:10:00.000           88.537            -11.520    11134.938837
                  13 Nov 2017 13:11:00.000           88.790            -11.680    11287.338565
                  13 Nov 2017 13:12:00.000           89.032            -11.839    11439.478615
                  13 Nov 2017 13:13:00.000           89.262            -11.999    11591.329698
                  13 Nov 2017 13:14:00.000           89.481            -12.158    11742.863575
                  13 Nov 2017 13:15:00.000           89.690            -12.317    11894.052989
                  13 Nov 2017 13:16:00.000           89.888            -12.476    12044.871611
                  13 Nov 2017 13:17:00.000           90.077            -12.634    12195.293981
                  13 Nov 2017 13:18:00.000           90.256            -12.792    12345.295461
                  13 Nov 2017 13:19:00.000           90.427            -12.950    12494.852182
                  13 Nov 2017 13:20:00.000           90.588            -13.107    12643.941008
                  13 Nov 2017 13:21:00.000           90.741            -13.264    12792.539488
                  13 Nov 2017 13:22:00.000           90.885            -13.420    12940.625824
                  13 Nov 2017 13:23:00.000           91.022            -13.576    13088.178831
                  13 Nov 2017 13:24:00.000           91.150            -13.732    13235.177908
                  13 Nov 2017 13:25:00.000           91.271            -13.887    13381.603007
                  13 Nov 2017 13:26:00.000           91.385            -14.041    13527.434601
                  13 Nov 2017 13:27:00.000           91.492            -14.195    13672.653665
                  13 Nov 2017 13:28:00.000           91.591            -14.348    13817.241643
                  13 Nov 2017 13:29:00.000           91.684            -14.501    13961.180430
                  13 Nov 2017 13:30:00.000           91.771            -14.653    14104.452350
                  13 Nov 2017 13:31:00.000           91.850            -14.805    14247.040137
                  13 Nov 2017 13:32:00.000           91.924            -14.955    14388.926913
                  13 Nov 2017 13:33:00.000           91.992            -15.106    14530.096173
                  13 Nov 2017 13:34:00.000           92.053            -15.255    14670.531769
                  13 Nov 2017 13:35:00.000           92.109            -15.404    14810.217893
                  13 Nov 2017 13:36:00.000           92.160            -15.552    14949.139065
                  13 Nov 2017 13:37:00.000           92.205            -15.700    15087.280119
                  13 Nov 2017 13:38:00.000           92.244            -15.846    15224.626188
                  13 Nov 2017 13:39:00.000           92.278            -15.992    15361.162696
                  13 Nov 2017 13:40:00.000           92.308            -16.137    15496.875345
                  13 Nov 2017 13:41:00.000           92.332            -16.282    15631.750106
                  13 Nov 2017 13:42:00.000           92.351            -16.425    15765.773207
                  13 Nov 2017 13:43:00.000           92.366            -16.568    15898.931127
                  13 Nov 2017 13:44:00.000           92.376            -16.710    16031.210585
                  13 Nov 2017 13:45:00.000           92.381            -16.851    16162.598534
                  13 Nov 2017 13:46:00.000           92.382            -16.991    16293.082152
                  13 Nov 2017 13:47:00.000           92.378            -17.130    16422.648837
                  13 Nov 2017 13:48:00.000           92.371            -17.269    16551.286198
                  13 Nov 2017 13:49:00.000           92.359            -17.406    16678.982050
                  13 Nov 2017 13:50:00.000           92.343            -17.543    16805.724409
                  13 Nov 2017 13:51:00.000           92.323            -17.678    16931.501484
                  13 Nov 2017 13:52:00.000           92.299            -17.813    17056.301675
                  13 Nov 2017 13:53:00.000           92.271            -17.946    17180.113568
                  13 Nov 2017 13:54:00.000           92.239            -18.079    17302.925925
                  13 Nov 2017 13:55:00.000           92.204            -18.211    17424.727689
                  13 Nov 2017 13:56:00.000           92.165            -18.342    17545.507971
                  13 Nov 2017 13:57:00.000           92.122            -18.471    17665.256052
                  13 Nov 2017 13:58:00.000           92.076            -18.600    17783.961377
                  13 Nov 2017 13:59:00.000           92.026            -18.728    17901.613553
                  13 Nov 2017 14:00:00.000           91.973            -18.854    18018.202343
                  13 Nov 2017 14:01:00.000           91.917            -18.980    18133.717668
                  13 Nov 2017 14:02:00.000           91.857            -19.104    18248.149598
                  13 Nov 2017 14:03:00.000           91.794            -19.227    18361.488356
                  13 Nov 2017 14:04:00.000           91.728            -19.350    18473.724309
                  13 Nov 2017 14:05:00.000           91.659            -19.471    18584.847971
                  13 Nov 2017 14:06:00.000           91.586            -19.591    18694.849998
                  13 Nov 2017 14:07:00.000           91.511            -19.709    18803.721186
                  13 Nov 2017 14:08:00.000           91.433            -19.827    18911.452470
                  13 Nov 2017 14:09:00.000           91.351            -19.943    19018.034922
                  13 Nov 2017 14:10:00.000           91.267            -20.059    19123.459748
                  13 Nov 2017 14:11:00.000           91.180            -20.173    19227.718288
                  13 Nov 2017 14:12:00.000           91.090            -20.286    19330.802015
                  13 Nov 2017 14:13:00.000           90.998            -20.397    19432.702529
                  13 Nov 2017 14:14:00.000           90.903            -20.508    19533.411562
                  13 Nov 2017 14:15:00.000           90.805            -20.617    19632.920974
                  13 Nov 2017 14:16:00.000           90.704            -20.725    19731.222748
                  13 Nov 2017 14:17:00.000           90.601            -20.832    19828.308915
                  13 Nov 2017 14:18:00.000           90.496            -20.937    19924.171873
                  13 Nov 2017 14:19:00.000           90.388            -21.041    20018.803897
                  13 Nov 2017 14:20:00.000           90.277            -21.144    20112.197468
                  13 Nov 2017 14:21:00.000           90.164            -21.246    20204.345188
                  13 Nov 2017 14:22:00.000           90.048            -21.346    20295.239779
                  13 Nov 2017 14:23:00.000           89.931            -21.445    20384.874084
                  13 Nov 2017 14:24:00.000           89.811            -21.543    20473.241063
                  13 Nov 2017 14:25:00.000           89.688            -21.639    20560.333797
                  13 Nov 2017 14:26:00.000           89.564            -21.734    20646.145482
